[
	{
		"type_enum": 1,
		"Name": "101 Mile Lake",
		"type_name": "Lake",
		"type_code": 951,
		"LongDD": -121.29361,
		"LatDD": 51.6675,
		"Country": "CAN",
		"ProvState": "British Columbia",
		"Abbrev": "CA-BC",
		"Closest": "100 Mile House",
		"Distance": 2.8
	},
	{
		"type_enum": 1,
		"Name": "103 Mile Lake",
		"type_name": "Lake",
		"type_code": 951,
		"LongDD": -121.29861,
		"LatDD": 51.685,
		"Country": "CAN",
		"ProvState": "British Columbia",
		"Abbrev": "CA-BC",
		"Closest": "105 Mile House",
		"Distance": 2.1
	},
	{
		"type_enum": 1,
		"Name": "105 Mile Lake",
		"type_name": "Lake",
		"type_code": 951,
		"LongDD": -121.32889,
		"LatDD": 51.71444,
		"Country": "CAN",
		"ProvState": "British Columbia",
		"Abbrev": "CA-BC",
		"Closest": "105 Mile House",
		"Distance": 1.8
	},
	{
		"type_enum": 1,
		"Name": "108 Mile Lake",
		"type_name": "Lake",
		"type_code": 951,
		"LongDD": -121.36222,
		"LatDD": 51.74222,
		"Country": "CAN",
		"ProvState": "British Columbia",
		"Abbrev": "CA-BC",
		"Closest": "Tatton",
		"Distance": 2.9
	},
	{
		"type_enum": 1,
		"Name": "130 Mile Lake",
		"type_name": "Lake",
		"type_code": 951,
		"LongDD": -121.74,
		"LatDD": 51.90611,
		"Country": "CAN",
		"ProvState": "British Columbia",
		"Abbrev": "CA-BC",
		"Closest": "127 Mile House",
		"Distance": 5.6
	},
	{
		"type_enum": 1,
		"Name": "180 Lake",
		"type_name": "Lake",
		"type_code": 951,
		"LongDD": -130.48139,
		"LatDD": 57.35611,
		"Country": "CAN",
		"ProvState": "British Columbia",
		"Abbrev": "CA-BC",
		"Closest": "Bob Quinn Lake",
		"Distance": 45
	},
	{
		"type_enum": 1,
		"Name": "28 Mile Lake",
		"type_name": "Lake",
		"type_code": 951,
		"LongDD": -124.18333,
		"LatDD": 54.78611,
		"Country": "CAN",
		"ProvState": "British Columbia",
		"Abbrev": "CA-BC",
		"Closest": "Pinchi Lake",
		"Distance": 22.7
	},
	{
		"type_enum": 1,
		"Name": "4 Mile Lake",
		"type_name": "Lake",
		"type_code": 951,
		"LongDD": -121.55028,
		"LatDD": 51.03944,
		"Country": "CAN",
		"ProvState": "British Columbia",
		"Abbrev": "CA-BC",
		"Closest": "Clinton",
		"Distance": 6.3
	},
	{
		"type_enum": 1,
		"Name": "6 Mile Lake",
		"type_name": "Lake",
		"type_code": 951,
		"LongDD": -121.54667,
		"LatDD": 51.02333,
		"Country": "CAN",
		"ProvState": "British Columbia",
		"Abbrev": "CA-BC",
		"Closest": "Clinton",
		"Distance": 8.1
	},
	{
		"type_enum": 1,
		"Name": "Aaltanhash River",
		"type_name": "River",
		"type_code": 600,
		"LongDD": -128.47722,
		"LatDD": 53.14639,
		"Country": "CAN",
		"ProvState": "British Columbia",
		"Abbrev": "CA-BC",
		"Closest": "Weewanie",
		"Distance": 64.1
	},
	{
		"type_enum": 1,
		"Name": "Aba Lake",
		"type_name": "Lake",
		"type_code": 951,
		"LongDD": -122.08,
		"LatDD": 53.47694,
		"Country": "CAN",
		"ProvState": "British Columbia",
		"Abbrev": "CA-BC",
		"Closest": "Cinema",
		"Distance": 36.6
	},
	{
		"type_enum": 1,
		"Name": "Abas Lake",
		"type_name": "Lake",
		"type_code": 951,
		"LongDD": -124.61361,
		"LatDD": 55.02694,
		"Country": "CAN",
		"ProvState": "British Columbia",
		"Abbrev": "CA-BC",
		"Closest": "Pinchi Lake",
		"Distance": 45.5
	},
	{
		"type_enum": 1,
		"Name": "Abbott Lake",
		"type_name": "Lake",
		"type_code": 951,
		"LongDD": -121.50111,
		"LatDD": 52.32472,
		"Country": "CAN",
		"ProvState": "British Columbia",
		"Abbrev": "CA-BC",
		"Closest": "Miocene",
		"Distance": 20.6
	},
	{
		"type_enum": 1,
		"Name": "Abbott Lake",
		"type_name": "Lake",
		"type_code": 951,
		"LongDD": -121.00083,
		"LatDD": 50.2875,
		"Country": "CAN",
		"ProvState": "British Columbia",
		"Abbrev": "CA-BC",
		"Closest": "Agate",
		"Distance": 8.6
	},
	{
		"type_enum": 1,
		"Name": "Abbs Lake",
		"type_name": "Lake",
		"type_code": 951,
		"LongDD": -121.2425,
		"LatDD": 51.56111,
		"Country": "CAN",
		"ProvState": "British Columbia",
		"Abbrev": "CA-BC",
		"Closest": "100 Mile House",
		"Distance": 9.8
	},
	{
		"type_enum": 1,
		"Name": "Abel Lake",
		"type_name": "Lake",
		"type_code": 951,
		"LongDD": -121.4125,
		"LatDD": 51.7075,
		"Country": "CAN",
		"ProvState": "British Columbia",
		"Abbrev": "CA-BC",
		"Closest": "Tatton",
		"Distance": 3.3
	},
	{
		"type_enum": 1,
		"Name": "Aberdeen Lake",
		"type_name": "Lake",
		"type_code": 951,
		"LongDD": -119.05306,
		"LatDD": 50.1175,
		"Country": "CAN",
		"ProvState": "British Columbia",
		"Abbrev": "CA-BC",
		"Closest": "Lumby",
		"Distance": 16.2
	},
	{
		"type_enum": 1,
		"Name": "Aberystwyth Lake",
		"type_name": "Lake",
		"type_code": 951,
		"LongDD": -116.50528,
		"LatDD": 50.62639,
		"Country": "CAN",
		"ProvState": "British Columbia",
		"Abbrev": "CA-BC",
		"Closest": "Radium Hot Springs",
		"Distance": 30.3
	},
	{
		"type_enum": 1,
		"Name": "Abetibie Lake",
		"type_name": "Lake",
		"type_code": 951,
		"LongDD": -117.15389,
		"LatDD": 51.51694,
		"Country": "CAN",
		"ProvState": "British Columbia",
		"Abbrev": "CA-BC",
		"Closest": "Forde",
		"Distance": 8.3
	},
	{
		"type_enum": 1,
		"Name": "Abrams Lake",
		"type_name": "Lake",
		"type_code": 951,
		"LongDD": -123.05222,
		"LatDD": 51.75111,
		"Country": "CAN",
		"ProvState": "British Columbia",
		"Abbrev": "CA-BC",
		"Closest": "Big Creek",
		"Distance": 4
	},
	{
		"type_enum": 1,
		"Name": "Abruzzi Lake",
		"type_name": "Lake",
		"type_code": 951,
		"LongDD": -115.08167,
		"LatDD": 50.44889,
		"Country": "CAN",
		"ProvState": "British Columbia",
		"Abbrev": "CA-BC",
		"Closest": "Round Prairie",
		"Distance": 44.1
	},
	{
		"type_enum": 1,
		"Name": "Abuntlet Lake",
		"type_name": "Lake",
		"type_code": 951,
		"LongDD": -125.42194,
		"LatDD": 52.56722,
		"Country": "CAN",
		"ProvState": "British Columbia",
		"Abbrev": "CA-BC",
		"Closest": "Atnarko",
		"Distance": 33.5
	},
	{
		"type_enum": 1,
		"Name": "Academus Lake",
		"type_name": "Lake",
		"type_code": 951,
		"LongDD": -125.77694,
		"LatDD": 55.47722,
		"Country": "CAN",
		"ProvState": "British Columbia",
		"Abbrev": "CA-BC",
		"Closest": "Takla Landing",
		"Distance": 12
	},
	{
		"type_enum": 1,
		"Name": "Acme Lake",
		"type_name": "Lake",
		"type_code": 951,
		"LongDD": -119.21611,
		"LatDD": 49.74417,
		"Country": "CAN",
		"ProvState": "British Columbia",
		"Abbrev": "CA-BC",
		"Closest": "McCulloch",
		"Distance": 6.6
	},
	{
		"type_enum": 1,
		"Name": "Aconitum Lake",
		"type_name": "Lake",
		"type_code": 951,
		"LongDD": -131.61194,
		"LatDD": 59.39889,
		"Country": "CAN",
		"ProvState": "British Columbia",
		"Abbrev": "CA-BC",
		"Closest": "Callison Ranch",
		"Distance": 85.2
	},
	{
		"type_enum": 1,
		"Name": "Acorn Lake",
		"type_name": "Lake",
		"type_code": 951,
		"LongDD": -126.53861,
		"LatDD": 55.40306,
		"Country": "CAN",
		"ProvState": "British Columbia",
		"Abbrev": "CA-BC",
		"Closest": "West Landing",
		"Distance": 34.7
	},
	{
		"type_enum": 1,
		"Name": "Acorn Lake",
		"type_name": "Lake",
		"type_code": 951,
		"LongDD": -125.76667,
		"LatDD": 53.99389,
		"Country": "CAN",
		"ProvState": "British Columbia",
		"Abbrev": "CA-BC",
		"Closest": "Danskin",
		"Distance": 1.7
	},
	{
		"type_enum": 1,
		"Name": "Adam Lake",
		"type_name": "Lake",
		"type_code": 951,
		"LongDD": -122.75167,
		"LatDD": 54.35361,
		"Country": "CAN",
		"ProvState": "British Columbia",
		"Abbrev": "CA-BC",
		"Closest": "Giscome",
		"Distance": 40.6
	},
	{
		"type_enum": 1,
		"Name": "Adam River",
		"type_name": "River",
		"type_code": 600,
		"LongDD": -126.27722,
		"LatDD": 50.46583,
		"Country": "CAN",
		"ProvState": "British Columbia",
		"Abbrev": "CA-BC",
		"Closest": "Cracroft",
		"Distance": 9.9
	},
	{
		"type_enum": 1,
		"Name": "Adams Lake",
		"type_name": "Lake",
		"type_code": 951,
		"LongDD": -119.57361,
		"LatDD": 51.16944,
		"Country": "CAN",
		"ProvState": "British Columbia",
		"Abbrev": "CA-BC",
		"Closest": "Woods Landing",
		"Distance": 38.3
	},
	{
		"type_enum": 1,
		"Name": "Adams Lake",
		"type_name": "Lake",
		"type_code": 951,
		"LongDD": -124.92583,
		"LatDD": 54.11556,
		"Country": "CAN",
		"ProvState": "British Columbia",
		"Abbrev": "CA-BC",
		"Closest": "Fraser Lake",
		"Distance": 8.1
	},
	{
		"type_enum": 1,
		"Name": "Adams River",
		"type_name": "River",
		"type_code": 600,
		"LongDD": -119.55389,
		"LatDD": 50.89417,
		"Country": "CAN",
		"ProvState": "British Columbia",
		"Abbrev": "CA-BC",
		"Closest": "Chase",
		"Distance": 12.5
	},
	{
		"type_enum": 1,
		"Name": "Adelaide Lake",
		"type_name": "Lake",
		"type_code": 951,
		"LongDD": -127.07528,
		"LatDD": 50.92389,
		"Country": "CAN",
		"ProvState": "British Columbia",
		"Abbrev": "CA-BC",
		"Closest": "Warner Bay",
		"Distance": 14.1
	},
	{
		"type_enum": 1,
		"Name": "Adit Lakes",
		"type_name": "Lakes",
		"type_code": 952,
		"LongDD": -122.86694,
		"LatDD": 50.03306,
		"Country": "CAN",
		"ProvState": "British Columbia",
		"Abbrev": "CA-BC",
		"Closest": "Alta Lake",
		"Distance": 11.2
	},
	{
		"type_enum": 1,
		"Name": "Adler Lake",
		"type_name": "Lake",
		"type_code": 951,
		"LongDD": -120.43444,
		"LatDD": 51.14083,
		"Country": "CAN",
		"ProvState": "British Columbia",
		"Abbrev": "CA-BC",
		"Closest": "Chinook Cove",
		"Distance": 21.3
	},
	{
		"type_enum": 1,
		"Name": "Adrian Lake",
		"type_name": "Lake",
		"type_code": 951,
		"LongDD": -122.98833,
		"LatDD": 54.49694,
		"Country": "CAN",
		"ProvState": "British Columbia",
		"Abbrev": "CA-BC",
		"Closest": "Anzac",
		"Distance": 43.1
	},
	{
		"type_enum": 1,
		"Name": "Adsit Lake",
		"type_name": "Lake",
		"type_code": 951,
		"LongDD": -130.48611,
		"LatDD": 58.88056,
		"Country": "CAN",
		"ProvState": "British Columbia",
		"Abbrev": "CA-BC",
		"Closest": "Defot",
		"Distance": 3
	},
	{
		"type_enum": 1,
		"Name": "Aeneas Lake",
		"type_name": "Lake",
		"type_code": 951,
		"LongDD": -119.70111,
		"LatDD": 49.40111,
		"Country": "CAN",
		"ProvState": "British Columbia",
		"Abbrev": "CA-BC",
		"Closest": "Marron Valley",
		"Distance": 4.6
	},
	{
		"type_enum": 1,
		"Name": "Aeroplane Lake",
		"type_name": "Lake",
		"type_code": 951,
		"LongDD": -127.88222,
		"LatDD": 59.35444,
		"Country": "CAN",
		"ProvState": "British Columbia",
		"Abbrev": "CA-BC",
		"Closest": "Fireside",
		"Distance": 54.4
	},
	{
		"type_enum": 1,
		"Name": "Affleck Lake",
		"type_name": "Lake",
		"type_code": 951,
		"LongDD": -127.85472,
		"LatDD": 55.48806,
		"Country": "CAN",
		"ProvState": "British Columbia",
		"Abbrev": "CA-BC",
		"Closest": "Gitanyow",
		"Distance": 28
	},
	{
		"type_enum": 1,
		"Name": "Agnes Lake",
		"type_name": "Lake",
		"type_code": 951,
		"LongDD": -124.14194,
		"LatDD": 49.95833,
		"Country": "CAN",
		"ProvState": "British Columbia",
		"Abbrev": "CA-BC",
		"Closest": "Earls Cove",
		"Distance": 24.8
	},
	{
		"type_enum": 1,
		"Name": "Agnes Lake",
		"type_name": "Lake",
		"type_code": 951,
		"LongDD": -127.66222,
		"LatDD": 51.65972,
		"Country": "CAN",
		"ProvState": "British Columbia",
		"Abbrev": "CA-BC",
		"Closest": "Dawsons Landing",
		"Distance": 10.1
	},
	{
		"type_enum": 1,
		"Name": "Agnus Lake",
		"type_name": "Lake",
		"type_code": 951,
		"LongDD": -124.97861,
		"LatDD": 51.88722,
		"Country": "CAN",
		"ProvState": "British Columbia",
		"Abbrev": "CA-BC",
		"Closest": "Tatla Lake",
		"Distance": 26
	},
	{
		"type_enum": 1,
		"Name": "Agodak Lake",
		"type_name": "Lake",
		"type_code": 951,
		"LongDD": -125.61056,
		"LatDD": 52.88528,
		"Country": "CAN",
		"ProvState": "British Columbia",
		"Abbrev": "CA-BC",
		"Closest": "Ulkatcho",
		"Distance": 14.1
	},
	{
		"type_enum": 1,
		"Name": "Agur Lake",
		"type_name": "Lake",
		"type_code": 951,
		"LongDD": -119.83222,
		"LatDD": 49.58333,
		"Country": "CAN",
		"ProvState": "British Columbia",
		"Abbrev": "CA-BC",
		"Closest": "Shingle Creek",
		"Distance": 7.8
	},
	{
		"type_enum": 1,
		"Name": "Ah Clem Lake",
		"type_name": "Lake",
		"type_code": 951,
		"LongDD": -129.11583,
		"LatDD": 59.17833,
		"Country": "CAN",
		"ProvState": "British Columbia",
		"Abbrev": "CA-BC",
		"Closest": "McDame",
		"Distance": 6.7
	},
	{
		"type_enum": 1,
		"Name": "Ah Lock Lake",
		"type_name": "Lake",
		"type_code": 951,
		"LongDD": -124.69167,
		"LatDD": 55.72583,
		"Country": "CAN",
		"ProvState": "British Columbia",
		"Abbrev": "CA-BC",
		"Closest": "Manson Creek",
		"Distance": 14.6
	},
	{
		"type_enum": 1,
		"Name": "Ahbau Lake",
		"type_name": "Lake",
		"type_code": 951,
		"LongDD": -122.09694,
		"LatDD": 53.27,
		"Country": "CAN",
		"ProvState": "British Columbia",
		"Abbrev": "CA-BC",
		"Closest": "Cinema",
		"Distance": 23.8
	},
	{
		"type_enum": 1,
		"Name": "Ahdatay Lake",
		"type_name": "Lake",
		"type_code": 951,
		"LongDD": -124.95639,
		"LatDD": 55.34417,
		"Country": "CAN",
		"ProvState": "British Columbia",
		"Abbrev": "CA-BC",
		"Closest": "Manson Creek",
		"Distance": 46.6
	},
	{
		"type_enum": 1,
		"Name": "Ahnuhati River",
		"type_name": "River",
		"type_code": 600,
		"LongDD": -125.63944,
		"LatDD": 50.89028,
		"Country": "CAN",
		"ProvState": "British Columbia",
		"Abbrev": "CA-BC",
		"Closest": "Thompson Sound",
		"Distance": 28.3
	},
	{
		"type_enum": 1,
		"Name": "Ahta River",
		"type_name": "River",
		"type_code": 600,
		"LongDD": -126.16556,
		"LatDD": 50.86944,
		"Country": "CAN",
		"ProvState": "British Columbia",
		"Abbrev": "CA-BC",
		"Closest": "Kingcome Inlet",
		"Distance": 9.3
	},
	{
		"type_enum": 1,
		"Name": "Aid Lake",
		"type_name": "Lake",
		"type_code": 951,
		"LongDD": -117.45444,
		"LatDD": 51.66194,
		"Country": "CAN",
		"ProvState": "British Columbia",
		"Abbrev": "CA-BC",
		"Closest": "East Gate",
		"Distance": 27.5
	},
	{
		"type_enum": 1,
		"Name": "Aiken Lake",
		"type_name": "Lake",
		"type_code": 951,
		"LongDD": -125.76028,
		"LatDD": 56.42861,
		"Country": "CAN",
		"ProvState": "British Columbia",
		"Abbrev": "CA-BC",
		"Closest": "Ingenika Mine",
		"Distance": 46.5
	},
	{
		"type_enum": 1,
		"Name": "Aileen Lake",
		"type_name": "Lake",
		"type_code": 951,
		"LongDD": -119.12778,
		"LatDD": 50.09667,
		"Country": "CAN",
		"ProvState": "British Columbia",
		"Abbrev": "CA-BC",
		"Closest": "Coldstream",
		"Distance": 15.9
	},
	{
		"type_enum": 1,
		"Name": "Ailport Lake",
		"type_name": "Lake",
		"type_code": 951,
		"LongDD": -126.13,
		"LatDD": 54.55278,
		"Country": "CAN",
		"ProvState": "British Columbia",
		"Abbrev": "CA-BC",
		"Closest": "Broman Lake",
		"Distance": 15.1
	},
	{
		"type_enum": 1,
		"Name": "Ailsa Lake",
		"type_name": "Lake",
		"type_code": 951,
		"LongDD": -116.3975,
		"LatDD": 49.52806,
		"Country": "CAN",
		"ProvState": "British Columbia",
		"Abbrev": "CA-BC",
		"Closest": "Meachen",
		"Distance": 13.6
	},
	{
		"type_enum": 1,
		"Name": "Ain Lake",
		"type_name": "Lake",
		"type_code": 951,
		"LongDD": -132.44389,
		"LatDD": 53.76278,
		"Country": "CAN",
		"ProvState": "British Columbia",
		"Abbrev": "CA-BC",
		"Closest": "Sewall",
		"Distance": 9.5
	},
	{
		"type_enum": 1,
		"Name": "Ain River",
		"type_name": "River",
		"type_code": 600,
		"LongDD": -132.42333,
		"LatDD": 53.7325,
		"Country": "CAN",
		"ProvState": "British Columbia",
		"Abbrev": "CA-BC",
		"Closest": "Sewall",
		"Distance": 8.9
	},
	{
		"type_enum": 1,
		"Name": "Aird Lake",
		"type_name": "Lake",
		"type_code": 951,
		"LongDD": -122.96972,
		"LatDD": 53.79083,
		"Country": "CAN",
		"ProvState": "British Columbia",
		"Abbrev": "CA-BC",
		"Closest": "Mud River",
		"Distance": 4.1
	},
	{
		"type_enum": 1,
		"Name": "Airline Lake",
		"type_name": "Lake",
		"type_code": 951,
		"LongDD": -125.06278,
		"LatDD": 55.13,
		"Country": "CAN",
		"ProvState": "British Columbia",
		"Abbrev": "CA-BC",
		"Closest": "Yekooche",
		"Distance": 58.9
	},
	{
		"type_enum": 1,
		"Name": "Airplane Lake",
		"type_name": "Lake",
		"type_code": 951,
		"LongDD": -133.2425,
		"LatDD": 59.93139,
		"Country": "CAN",
		"ProvState": "British Columbia",
		"Abbrev": "CA-BC",
		"Closest": "Surprise",
		"Distance": 34.5
	},
	{
		"type_enum": 1,
		"Name": "Akehurst Lake",
		"type_name": "Lake",
		"type_code": 951,
		"LongDD": -120.47667,
		"LatDD": 51.32833,
		"Country": "CAN",
		"ProvState": "British Columbia",
		"Abbrev": "CA-BC",
		"Closest": "Chu Chua",
		"Distance": 21.7
	},
	{
		"type_enum": 1,
		"Name": "Akie River",
		"type_name": "River",
		"type_code": 600,
		"LongDD": -125.11861,
		"LatDD": 57.02861,
		"Country": "CAN",
		"ProvState": "British Columbia",
		"Abbrev": "CA-BC",
		"Closest": "Tsay Keh Dene",
		"Distance": 18.6
	},
	{
		"type_enum": 1,
		"Name": "Akolkolex River",
		"type_name": "River",
		"type_code": 600,
		"LongDD": -118.03028,
		"LatDD": 50.82333,
		"Country": "CAN",
		"ProvState": "British Columbia",
		"Abbrev": "CA-BC",
		"Closest": "Arrowhead",
		"Distance": 14.7
	},
	{
		"type_enum": 1,
		"Name": "Aktaklin Lake",
		"type_name": "Lake",
		"type_code": 951,
		"LongDD": -124.92083,
		"LatDD": 52.20417,
		"Country": "CAN",
		"ProvState": "British Columbia",
		"Abbrev": "CA-BC",
		"Closest": "Towdystan",
		"Distance": 13.1
	},
	{
		"type_enum": 1,
		"Name": "Akus Lake",
		"type_name": "Lake",
		"type_code": 951,
		"LongDD": -125.8225,
		"LatDD": 55.72389,
		"Country": "CAN",
		"ProvState": "British Columbia",
		"Abbrev": "CA-BC",
		"Closest": "Old Hogem",
		"Distance": 23.8
	},
	{
		"type_enum": 1,
		"Name": "Alah Lake",
		"type_name": "Lake",
		"type_code": 951,
		"LongDD": -121.36611,
		"LatDD": 52.38694,
		"Country": "CAN",
		"ProvState": "British Columbia",
		"Abbrev": "CA-BC",
		"Closest": "Black Creek",
		"Distance": 21.1
	},
	{
		"type_enum": 1,
		"Name": "Alana Lake",
		"type_name": "Lake",
		"type_code": 951,
		"LongDD": -122.77917,
		"LatDD": 54.16,
		"Country": "CAN",
		"ProvState": "British Columbia",
		"Abbrev": "CA-BC",
		"Closest": "Carlson",
		"Distance": 25
	},
	{
		"type_enum": 1,
		"Name": "Alans Lake",
		"type_name": "Lake",
		"type_code": 951,
		"LongDD": -121.00556,
		"LatDD": 51.7175,
		"Country": "CAN",
		"ProvState": "British Columbia",
		"Abbrev": "CA-BC",
		"Closest": "Deka Lake",
		"Distance": 16.2
	},
	{
		"type_enum": 1,
		"Name": "Alaric Lake",
		"type_name": "Lake",
		"type_code": 951,
		"LongDD": -120.16083,
		"LatDD": 49.6175,
		"Country": "CAN",
		"ProvState": "British Columbia",
		"Abbrev": "CA-BC",
		"Closest": "Jellicoe",
		"Distance": 11.5
	},
	{
		"type_enum": 1,
		"Name": "Alastair Lake",
		"type_name": "Lake",
		"type_code": 951,
		"LongDD": -129.18111,
		"LatDD": 54.10861,
		"Country": "CAN",
		"ProvState": "British Columbia",
		"Abbrev": "CA-BC",
		"Closest": "Kitimat",
		"Distance": 35
	},
	{
		"type_enum": 1,
		"Name": "Alava Lake",
		"type_name": "Lake",
		"type_code": 951,
		"LongDD": -126.50333,
		"LatDD": 49.90028,
		"Country": "CAN",
		"ProvState": "British Columbia",
		"Abbrev": "CA-BC",
		"Closest": "Tahsis",
		"Distance": 11.7
	},
	{
		"type_enum": 1,
		"Name": "Albert Lake",
		"type_name": "Lake",
		"type_code": 951,
		"LongDD": -125.35472,
		"LatDD": 55.37806,
		"Country": "CAN",
		"ProvState": "British Columbia",
		"Abbrev": "CA-BC",
		"Closest": "Takla Landing",
		"Distance": 40.3
	},
	{
		"type_enum": 1,
		"Name": "Albert River",
		"type_name": "River",
		"type_code": 600,
		"LongDD": -115.56694,
		"LatDD": 50.53389,
		"Country": "CAN",
		"ProvState": "British Columbia",
		"Abbrev": "CA-BC",
		"Closest": "Invermere",
		"Distance": 32.9
	},
	{
		"type_enum": 1,
		"Name": "Alberta Lake",
		"type_name": "Lake",
		"type_code": 951,
		"LongDD": -121.63556,
		"LatDD": 51.35028,
		"Country": "CAN",
		"ProvState": "British Columbia",
		"Abbrev": "CA-BC",
		"Closest": "Chasm",
		"Distance": 18.2
	},
	{
		"type_enum": 1,
		"Name": "Albreda Lake",
		"type_name": "Lake",
		"type_code": 951,
		"LongDD": -119.15778,
		"LatDD": 52.63028,
		"Country": "CAN",
		"ProvState": "British Columbia",
		"Abbrev": "CA-BC",
		"Closest": "Albreda",
		"Distance": 0.9
	},
	{
		"type_enum": 1,
		"Name": "Albreda River",
		"type_name": "River",
		"type_code": 600,
		"LongDD": -119.13083,
		"LatDD": 52.47861,
		"Country": "CAN",
		"ProvState": "British Columbia",
		"Abbrev": "CA-BC",
		"Closest": "Albreda",
		"Distance": 17.8
	},
	{
		"type_enum": 1,
		"Name": "Alces River",
		"type_name": "River",
		"type_code": 600,
		"LongDD": -120.05556,
		"LatDD": 56.12722,
		"Country": "CAN",
		"ProvState": "British Columbia",
		"Abbrev": "CA-BC",
		"Closest": "Shearer Dale",
		"Distance": 6.9
	},
	{
		"type_enum": 1,
		"Name": "Alcock Lake",
		"type_name": "Lake",
		"type_code": 951,
		"LongDD": -120.21278,
		"LatDD": 55.60889,
		"Country": "CAN",
		"ProvState": "British Columbia",
		"Abbrev": "CA-BC",
		"Closest": "Tomslake",
		"Distance": 10.4
	},
	{
		"type_enum": 1,
		"Name": "Alder Lake",
		"type_name": "Lake",
		"type_code": 951,
		"LongDD": -123.10472,
		"LatDD": 54.38778,
		"Country": "CAN",
		"ProvState": "British Columbia",
		"Abbrev": "CA-BC",
		"Closest": "Isle Pierre",
		"Distance": 49.6
	},
	{
		"type_enum": 1,
		"Name": "Aldermen Lakes",
		"type_name": "Lakes",
		"type_code": 952,
		"LongDD": -125.2825,
		"LatDD": 49.66611,
		"Country": "CAN",
		"ProvState": "British Columbia",
		"Abbrev": "CA-BC",
		"Closest": "Bevan",
		"Distance": 14.3
	},
	{
		"type_enum": 1,
		"Name": "Aldrich Lake",
		"type_name": "Lake",
		"type_code": 951,
		"LongDD": -127.37167,
		"LatDD": 54.75389,
		"Country": "CAN",
		"ProvState": "British Columbia",
		"Abbrev": "CA-BC",
		"Closest": "Lake Kathlyn",
		"Distance": 12.1
	},
	{
		"type_enum": 1,
		"Name": "Alec Chief Lake",
		"type_name": "Lake",
		"type_code": 951,
		"LongDD": -129.78639,
		"LatDD": 59.78139,
		"Country": "CAN",
		"ProvState": "British Columbia",
		"Abbrev": "CA-BC",
		"Closest": "Jade City",
		"Distance": 58.9
	},
	{
		"type_enum": 1,
		"Name": "Alec Lake",
		"type_name": "Lake",
		"type_code": 951,
		"LongDD": -123.22806,
		"LatDD": 49.70972,
		"Country": "CAN",
		"ProvState": "British Columbia",
		"Abbrev": "CA-BC",
		"Closest": "Woodfibre",
		"Distance": 5
	},
	{
		"type_enum": 1,
		"Name": "Aleece Lake",
		"type_name": "Lake",
		"type_code": 951,
		"LongDD": -121.63056,
		"LatDD": 50.76556,
		"Country": "CAN",
		"ProvState": "British Columbia",
		"Abbrev": "CA-BC",
		"Closest": "Fountain Valley",
		"Distance": 17
	},
	{
		"type_enum": 1,
		"Name": "Alex Graham Lake",
		"type_name": "Lake",
		"type_code": 951,
		"LongDD": -123.09,
		"LatDD": 52.205,
		"Country": "CAN",
		"ProvState": "British Columbia",
		"Abbrev": "CA-BC",
		"Closest": "Lees Corner",
		"Distance": 29.3
	},
	{
		"type_enum": 1,
		"Name": "Alex Lake",
		"type_name": "Lake",
		"type_code": 951,
		"LongDD": -119.21056,
		"LatDD": 50.10389,
		"Country": "CAN",
		"ProvState": "British Columbia",
		"Abbrev": "CA-BC",
		"Closest": "Coldstream",
		"Distance": 13.4
	},
	{
		"type_enum": 1,
		"Name": "Alex Lake",
		"type_name": "Lake",
		"type_code": 951,
		"LongDD": -122.66167,
		"LatDD": 51.61444,
		"Country": "CAN",
		"ProvState": "British Columbia",
		"Abbrev": "CA-BC",
		"Closest": "Big Creek",
		"Distance": 28
	},
	{
		"type_enum": 1,
		"Name": "Alexander Lake",
		"type_name": "Lake",
		"type_code": 951,
		"LongDD": -120.50917,
		"LatDD": 50.98389,
		"Country": "CAN",
		"ProvState": "British Columbia",
		"Abbrev": "CA-BC",
		"Closest": "Criss Creek",
		"Distance": 17.3
	},
	{
		"type_enum": 1,
		"Name": "Alexis Lake",
		"type_name": "Lake",
		"type_code": 951,
		"LongDD": -123.52889,
		"LatDD": 52.27222,
		"Country": "CAN",
		"ProvState": "British Columbia",
		"Abbrev": "CA-BC",
		"Closest": "Redstone",
		"Distance": 19.4
	},
	{
		"type_enum": 1,
		"Name": "Aleza Lake",
		"type_name": "Lake",
		"type_code": 951,
		"LongDD": -122.06528,
		"LatDD": 54.115,
		"Country": "CAN",
		"ProvState": "British Columbia",
		"Abbrev": "CA-BC",
		"Closest": "Newlands",
		"Distance": 8.9
	},
	{
		"type_enum": 1,
		"Name": "Alf Lake",
		"type_name": "Lake",
		"type_code": 951,
		"LongDD": -124.92583,
		"LatDD": 54.07972,
		"Country": "CAN",
		"ProvState": "British Columbia",
		"Abbrev": "CA-BC",
		"Closest": "Fraser Lake",
		"Distance": 5.8
	},
	{
		"type_enum": 1,
		"Name": "Alford Lake",
		"type_name": "Lake",
		"type_code": 951,
		"LongDD": -122.81222,
		"LatDD": 54.31556,
		"Country": "CAN",
		"ProvState": "British Columbia",
		"Abbrev": "CA-BC",
		"Closest": "Giscome",
		"Distance": 40.1
	},
	{
		"type_enum": 1,
		"Name": "Alice Lake",
		"type_name": "Lake",
		"type_code": 951,
		"LongDD": -123.12167,
		"LatDD": 49.77861,
		"Country": "CAN",
		"ProvState": "British Columbia",
		"Abbrev": "CA-BC",
		"Closest": "Cheekye",
		"Distance": 3.1
	},
	{
		"type_enum": 1,
		"Name": "Alice Lake",
		"type_name": "Lake",
		"type_code": 951,
		"LongDD": -127.4125,
		"LatDD": 50.46333,
		"Country": "CAN",
		"ProvState": "British Columbia",
		"Abbrev": "CA-BC",
		"Closest": "Port Alice",
		"Distance": 6.7
	},
	{
		"type_enum": 1,
		"Name": "Alice Lake",
		"type_name": "Lake",
		"type_code": 951,
		"LongDD": -120.1675,
		"LatDD": 52.06167,
		"Country": "CAN",
		"ProvState": "British Columbia",
		"Abbrev": "CA-BC",
		"Closest": "Mahood Falls",
		"Distance": 41.7
	},
	{
		"type_enum": 1,
		"Name": "Aline Lake",
		"type_name": "Lake",
		"type_code": 951,
		"LongDD": -125.51194,
		"LatDD": 59.37278,
		"Country": "CAN",
		"ProvState": "British Columbia",
		"Abbrev": "CA-BC",
		"Closest": "Liard River",
		"Distance": 32.7
	},
	{
		"type_enum": 1,
		"Name": "Alix Lakes",
		"type_name": "Lakes",
		"type_code": 952,
		"LongDD": -122.41472,
		"LatDD": 52.63722,
		"Country": "CAN",
		"ProvState": "British Columbia",
		"Abbrev": "CA-BC",
		"Closest": "Narcosli Creek",
		"Distance": 13.7
	},
	{
		"type_enum": 1,
		"Name": "Alixton Lake",
		"type_name": "Lake",
		"type_code": 951,
		"LongDD": -122.11278,
		"LatDD": 51.79278,
		"Country": "CAN",
		"ProvState": "British Columbia",
		"Abbrev": "CA-BC",
		"Closest": "Enterprise",
		"Distance": 28.6
	},
	{
		"type_enum": 1,
		"Name": "Alkali Lake",
		"type_name": "Lake",
		"type_code": 951,
		"LongDD": -131.27194,
		"LatDD": 57.89778,
		"Country": "CAN",
		"ProvState": "British Columbia",
		"Abbrev": "CA-BC",
		"Closest": "Glenora",
		"Distance": 9.2
	},
	{
		"type_enum": 1,
		"Name": "Alkali Lake",
		"type_name": "Lake",
		"type_code": 951,
		"LongDD": -122.27917,
		"LatDD": 51.77611,
		"Country": "CAN",
		"ProvState": "British Columbia",
		"Abbrev": "CA-BC",
		"Closest": "Becher House",
		"Distance": 25.3
	},
	{
		"type_enum": 1,
		"Name": "Alkali Lakes",
		"type_name": "Lakes",
		"type_code": 952,
		"LongDD": -121.54861,
		"LatDD": 51.03472,
		"Country": "CAN",
		"ProvState": "British Columbia",
		"Abbrev": "CA-BC",
		"Closest": "Clinton",
		"Distance": 6.9
	},
	{
		"type_enum": 1,
		"Name": "Alkaline Lake",
		"type_name": "Lake",
		"type_code": 951,
		"LongDD": -115.49889,
		"LatDD": 49.50556,
		"Country": "CAN",
		"ProvState": "British Columbia",
		"Abbrev": "CA-BC",
		"Closest": "Bull River",
		"Distance": 5.6
	},
	{
		"type_enum": 1,
		"Name": "Allan B Lake",
		"type_name": "Lake",
		"type_code": 951,
		"LongDD": -129.99222,
		"LatDD": 58.42389,
		"Country": "CAN",
		"ProvState": "British Columbia",
		"Abbrev": "CA-BC",
		"Closest": "Laketon",
		"Distance": 31.3
	},
	{
		"type_enum": 1,
		"Name": "Allan Lake",
		"type_name": "Lake",
		"type_code": 951,
		"LongDD": -130.00167,
		"LatDD": 58.43111,
		"Country": "CAN",
		"ProvState": "British Columbia",
		"Abbrev": "CA-BC",
		"Closest": "Laketon",
		"Distance": 30.4
	},
	{
		"type_enum": 1,
		"Name": "Allan Lake",
		"type_name": "Lake",
		"type_code": 951,
		"LongDD": -122.21889,
		"LatDD": 49.24417,
		"Country": "CAN",
		"ProvState": "British Columbia",
		"Abbrev": "CA-BC",
		"Closest": "Mission",
		"Distance": 10.6
	},
	{
		"type_enum": 1,
		"Name": "Allan Lake",
		"type_name": "Lake",
		"type_code": 951,
		"LongDD": -129.56583,
		"LatDD": 59.265,
		"Country": "CAN",
		"ProvState": "British Columbia",
		"Abbrev": "CA-BC",
		"Closest": "Jade City",
		"Distance": 3.4
	},
	{
		"type_enum": 1,
		"Name": "Allan Lake",
		"type_name": "Lake",
		"type_code": 951,
		"LongDD": -120.34972,
		"LatDD": 51.23056,
		"Country": "CAN",
		"ProvState": "British Columbia",
		"Abbrev": "CA-BC",
		"Closest": "Chinook Cove",
		"Distance": 12.7
	},
	{
		"type_enum": 1,
		"Name": "Allard Lake",
		"type_name": "Lake",
		"type_code": 951,
		"LongDD": -127.33361,
		"LatDD": 51.48083,
		"Country": "CAN",
		"ProvState": "British Columbia",
		"Abbrev": "CA-BC",
		"Closest": "Dawsons Landing",
		"Distance": 20.7
	},
	{
		"type_enum": 1,
		"Name": "Allardyce Lake",
		"type_name": "Lake",
		"type_code": 951,
		"LongDD": -126.78639,
		"LatDD": 50.87417,
		"Country": "CAN",
		"ProvState": "British Columbia",
		"Abbrev": "CA-BC",
		"Closest": "Sullivan Bay",
		"Distance": 2.4
	},
	{
		"type_enum": 1,
		"Name": "Allen Lake",
		"type_name": "Lake",
		"type_code": 951,
		"LongDD": -125.035,
		"LatDD": 49.59861,
		"Country": "CAN",
		"ProvState": "British Columbia",
		"Abbrev": "CA-BC",
		"Closest": "Cumberland",
		"Distance": 2.2
	},
	{
		"type_enum": 1,
		"Name": "Allenby Lake",
		"type_name": "Lake",
		"type_code": 951,
		"LongDD": -120.52972,
		"LatDD": 49.38639,
		"Country": "CAN",
		"ProvState": "British Columbia",
		"Abbrev": "CA-BC",
		"Closest": "Allenby",
		"Distance": 3.5
	},
	{
		"type_enum": 1,
		"Name": "Allendale Lake",
		"type_name": "Lake",
		"type_code": 951,
		"LongDD": -119.33056,
		"LatDD": 49.39,
		"Country": "CAN",
		"ProvState": "British Columbia",
		"Abbrev": "CA-BC",
		"Closest": "Eagle Bluff",
		"Distance": 19.3
	},
	{
		"type_enum": 1,
		"Name": "Alleyne Lake",
		"type_name": "Lake",
		"type_code": 951,
		"LongDD": -120.56722,
		"LatDD": 49.91889,
		"Country": "CAN",
		"ProvState": "British Columbia",
		"Abbrev": "CA-BC",
		"Closest": "Aspen Grove",
		"Distance": 3.9
	},
	{
		"type_enum": 1,
		"Name": "Allie Lake",
		"type_name": "Lake",
		"type_code": 951,
		"LongDD": -120.84889,
		"LatDD": 51.14667,
		"Country": "CAN",
		"ProvState": "British Columbia",
		"Abbrev": "CA-BC",
		"Closest": "Vidette",
		"Distance": 4.2
	},
	{
		"type_enum": 1,
		"Name": "Allison Lake",
		"type_name": "Lake",
		"type_code": 951,
		"LongDD": -120.605,
		"LatDD": 49.68333,
		"Country": "CAN",
		"ProvState": "British Columbia",
		"Abbrev": "CA-BC",
		"Closest": "Allison Lake",
		"Distance": 0.7
	},
	{
		"type_enum": 1,
		"Name": "Alouette Lake",
		"type_name": "Lake",
		"type_code": 951,
		"LongDD": -122.40389,
		"LatDD": 49.34083,
		"Country": "CAN",
		"ProvState": "British Columbia",
		"Abbrev": "CA-BC",
		"Closest": "Williams Landing",
		"Distance": 13.1
	},
	{
		"type_enum": 1,
		"Name": "Alouette River",
		"type_name": "River",
		"type_code": 600,
		"LongDD": -122.70861,
		"LatDD": 49.26444,
		"Country": "CAN",
		"ProvState": "British Columbia",
		"Abbrev": "CA-BC",
		"Closest": "Pitt Meadows",
		"Distance": 5.1
	},
	{
		"type_enum": 1,
		"Name": "Alpha Lake",
		"type_name": "Lake",
		"type_code": 951,
		"LongDD": -123.00417,
		"LatDD": 50.09222,
		"Country": "CAN",
		"ProvState": "British Columbia",
		"Abbrev": "CA-BC",
		"Closest": "Alta Lake",
		"Distance": 1.7
	},
	{
		"type_enum": 1,
		"Name": "Alpha Lake",
		"type_name": "Lake",
		"type_code": 951,
		"LongDD": -124.16528,
		"LatDD": 49.93361,
		"Country": "CAN",
		"ProvState": "British Columbia",
		"Abbrev": "CA-BC",
		"Closest": "Earls Cove",
		"Distance": 23.1
	},
	{
		"type_enum": 1,
		"Name": "Alpha Lake",
		"type_name": "Lake",
		"type_code": 951,
		"LongDD": -121.8525,
		"LatDD": 52.41222,
		"Country": "CAN",
		"ProvState": "British Columbia",
		"Abbrev": "CA-BC",
		"Closest": "Big Lake Ranch",
		"Distance": 0.5
	},
	{
		"type_enum": 1,
		"Name": "Alpheus Lake",
		"type_name": "Lake",
		"type_code": 951,
		"LongDD": -125.52806,
		"LatDD": 50.47639,
		"Country": "CAN",
		"ProvState": "British Columbia",
		"Abbrev": "CA-BC",
		"Closest": "Roy",
		"Distance": 4.5
	},
	{
		"type_enum": 1,
		"Name": "Alpine Lake",
		"type_name": "Lake",
		"type_code": 951,
		"LongDD": -129.18167,
		"LatDD": 55.52917,
		"Country": "CAN",
		"ProvState": "British Columbia",
		"Abbrev": "CA-BC",
		"Closest": "Alice Arm",
		"Distance": 18.7
	},
	{
		"type_enum": 1,
		"Name": "Alpine Lake",
		"type_name": "Lake",
		"type_code": 951,
		"LongDD": -124.17417,
		"LatDD": 50.18417,
		"Country": "CAN",
		"ProvState": "British Columbia",
		"Abbrev": "CA-BC",
		"Closest": "Homfray Creek",
		"Distance": 35.1
	},
	{
		"type_enum": 1,
		"Name": "Alsek River",
		"type_name": "River",
		"type_code": 600,
		"LongDD": -137.99972,
		"LatDD": 59.45528,
		"Country": "CAN",
		"ProvState": "British Columbia",
		"Abbrev": "CA-BC",
		"Closest": "Rainy Hollow",
		"Distance": 83.4
	},
	{
		"type_enum": 1,
		"Name": "Alta Lake",
		"type_name": "Lake",
		"type_code": 951,
		"LongDD": -122.98194,
		"LatDD": 50.11472,
		"Country": "CAN",
		"ProvState": "British Columbia",
		"Abbrev": "CA-BC",
		"Closest": "Alta Lake",
		"Distance": 1.6
	},
	{
		"type_enum": 1,
		"Name": "Alto Lake",
		"type_name": "Lake",
		"type_code": 951,
		"LongDD": -126.15778,
		"LatDD": 49.32667,
		"Country": "CAN",
		"ProvState": "British Columbia",
		"Abbrev": "CA-BC",
		"Closest": "Ahousat",
		"Distance": 8.2
	},
	{
		"type_enum": 1,
		"Name": "Altruist Lake",
		"type_name": "Lake",
		"type_code": 951,
		"LongDD": -123.93611,
		"LatDD": 51.06889,
		"Country": "CAN",
		"ProvState": "British Columbia",
		"Abbrev": "CA-BC",
		"Closest": "Nemaiah Valley",
		"Distance": 46.2
	},
	{
		"type_enum": 1,
		"Name": "Alty Lake",
		"type_name": "Lake",
		"type_code": 951,
		"LongDD": -129.38583,
		"LatDD": 53.59528,
		"Country": "CAN",
		"ProvState": "British Columbia",
		"Abbrev": "CA-BC",
		"Closest": "Weewanie",
		"Distance": 40.7
	},
	{
		"type_enum": 1,
		"Name": "Alvin Lake",
		"type_name": "Lake",
		"type_code": 951,
		"LongDD": -129.8325,
		"LatDD": 53.79389,
		"Country": "CAN",
		"ProvState": "British Columbia",
		"Abbrev": "CA-BC",
		"Closest": "Oona River",
		"Distance": 32.4
	},
	{
		"type_enum": 1,
		"Name": "Alwyn Lake",
		"type_name": "Lake",
		"type_code": 951,
		"LongDD": -130.23472,
		"LatDD": 54.21889,
		"Country": "CAN",
		"ProvState": "British Columbia",
		"Abbrev": "CA-BC",
		"Closest": "Port Edward",
		"Distance": 3.6
	},
	{
		"type_enum": 1,
		"Name": "Amanita Lake",
		"type_name": "Lake",
		"type_code": 951,
		"LongDD": -121.8325,
		"LatDD": 54.14222,
		"Country": "CAN",
		"ProvState": "British Columbia",
		"Abbrev": "CA-BC",
		"Closest": "Newlands",
		"Distance": 24.4
	},
	{
		"type_enum": 1,
		"Name": "Ambrose Lake",
		"type_name": "Lake",
		"type_code": 951,
		"LongDD": -124.02361,
		"LatDD": 49.73278,
		"Country": "CAN",
		"ProvState": "British Columbia",
		"Abbrev": "CA-BC",
		"Closest": "Earls Cove",
		"Distance": 2.4
	},
	{
		"type_enum": 1,
		"Name": "Amedroz Lake",
		"type_name": "Lake",
		"type_code": 951,
		"LongDD": -125.21167,
		"LatDD": 49.01694,
		"Country": "CAN",
		"ProvState": "British Columbia",
		"Abbrev": "CA-BC",
		"Closest": "Ecoole",
		"Distance": 12.4
	},
	{
		"type_enum": 1,
		"Name": "Amisk Lake",
		"type_name": "Lake",
		"type_code": 951,
		"LongDD": -120.56167,
		"LatDD": 54.24583,
		"Country": "CAN",
		"ProvState": "British Columbia",
		"Abbrev": "CA-BC",
		"Closest": "Penny",
		"Distance": 64.5
	},
	{
		"type_enum": 1,
		"Name": "Amiskwi Lake",
		"type_name": "Lake",
		"type_code": 951,
		"LongDD": -116.64417,
		"LatDD": 51.59222,
		"Country": "CAN",
		"ProvState": "British Columbia",
		"Abbrev": "CA-BC",
		"Closest": "Forde",
		"Distance": 35.3
	},
	{
		"type_enum": 1,
		"Name": "Amiskwi River",
		"type_name": "River",
		"type_code": 600,
		"LongDD": -116.54667,
		"LatDD": 51.38111,
		"Country": "CAN",
		"ProvState": "British Columbia",
		"Abbrev": "CA-BC",
		"Closest": "Edelweiss",
		"Distance": 30.5
	},
	{
		"type_enum": 1,
		"Name": "Amor Lake",
		"type_name": "Lake",
		"type_code": 951,
		"LongDD": -125.55278,
		"LatDD": 50.16083,
		"Country": "CAN",
		"ProvState": "British Columbia",
		"Abbrev": "CA-BC",
		"Closest": "Bloedel",
		"Distance": 13
	},
	{
		"type_enum": 1,
		"Name": "Amoth Lake",
		"type_name": "Lake",
		"type_code": 951,
		"LongDD": -129.6125,
		"LatDD": 54.7675,
		"Country": "CAN",
		"ProvState": "British Columbia",
		"Abbrev": "CA-BC",
		"Closest": "Rosswood",
		"Distance": 54.4
	},
	{
		"type_enum": 1,
		"Name": "Amphitheatre Lake",
		"type_name": "Lake",
		"type_code": 951,
		"LongDD": -125.38944,
		"LatDD": 49.70472,
		"Country": "CAN",
		"ProvState": "British Columbia",
		"Abbrev": "CA-BC",
		"Closest": "Headquarters",
		"Distance": 20.8
	},
	{
		"type_enum": 1,
		"Name": "Amy Lake",
		"type_name": "Lake",
		"type_code": 951,
		"LongDD": -125.11944,
		"LatDD": 54.555,
		"Country": "CAN",
		"ProvState": "British Columbia",
		"Abbrev": "CA-BC",
		"Closest": "Yekooche",
		"Distance": 5.8
	},
	{
		"type_enum": 1,
		"Name": "Anah Lake",
		"type_name": "Lake",
		"type_code": 951,
		"LongDD": -123.25611,
		"LatDD": 52.11778,
		"Country": "CAN",
		"ProvState": "British Columbia",
		"Abbrev": "CA-BC",
		"Closest": "Lees Corner",
		"Distance": 22.3
	},
	{
		"type_enum": 1,
		"Name": "Anahim Lake",
		"type_name": "Lake",
		"type_code": 951,
		"LongDD": -125.34556,
		"LatDD": 52.48917,
		"Country": "CAN",
		"ProvState": "British Columbia",
		"Abbrev": "CA-BC",
		"Closest": "Charlotte Lake",
		"Distance": 29.5
	},
	{
		"type_enum": 1,
		"Name": "Anchor Lake",
		"type_name": "Lake",
		"type_code": 951,
		"LongDD": -128.76806,
		"LatDD": 53.06472,
		"Country": "CAN",
		"ProvState": "British Columbia",
		"Abbrev": "CA-BC",
		"Closest": "Weewanie",
		"Distance": 69.7
	},
	{
		"type_enum": 1,
		"Name": "And Another Lake",
		"type_name": "Lake",
		"type_code": 951,
		"LongDD": -120.2325,
		"LatDD": 49.89194,
		"Country": "CAN",
		"ProvState": "British Columbia",
		"Abbrev": "CA-BC",
		"Closest": "Jellicoe",
		"Distance": 23.5
	},
	{
		"type_enum": 1,
		"Name": "Anders Lake",
		"type_name": "Lake",
		"type_code": 951,
		"LongDD": -125.87556,
		"LatDD": 54.12278,
		"Country": "CAN",
		"ProvState": "British Columbia",
		"Abbrev": "CA-BC",
		"Closest": "Burns Lake",
		"Distance": 14
	},
	{
		"type_enum": 1,
		"Name": "Anders Lake",
		"type_name": "Lake",
		"type_code": 951,
		"LongDD": -121.79944,
		"LatDD": 52.285,
		"Country": "CAN",
		"ProvState": "British Columbia",
		"Abbrev": "CA-BC",
		"Closest": "Miocene",
		"Distance": 5
	},
	{
		"type_enum": 1,
		"Name": "Anderson Lake",
		"type_name": "Lake",
		"type_code": 951,
		"LongDD": -120.40167,
		"LatDD": 50.41639,
		"Country": "CAN",
		"ProvState": "British Columbia",
		"Abbrev": "CA-BC",
		"Closest": "Lac Le Jeune",
		"Distance": 9.6
	},
	{
		"type_enum": 1,
		"Name": "Anderson Lake",
		"type_name": "Lake",
		"type_code": 951,
		"LongDD": -125.19861,
		"LatDD": 49.73,
		"Country": "CAN",
		"ProvState": "British Columbia",
		"Abbrev": "CA-BC",
		"Closest": "Headquarters",
		"Distance": 7.2
	},
	{
		"type_enum": 1,
		"Name": "Anderson Lake",
		"type_name": "Lake",
		"type_code": 951,
		"LongDD": -119.80694,
		"LatDD": 52.18917,
		"Country": "CAN",
		"ProvState": "British Columbia",
		"Abbrev": "CA-BC",
		"Closest": "Clearwater",
		"Distance": 62.4
	},
	{
		"type_enum": 1,
		"Name": "Anderson Lake",
		"type_name": "Lake",
		"type_code": 951,
		"LongDD": -122.40972,
		"LatDD": 50.63333,
		"Country": "CAN",
		"ProvState": "British Columbia",
		"Abbrev": "CA-BC",
		"Closest": "McGillivray",
		"Distance": 2.5
	},
	{
		"type_enum": 1,
		"Name": "Anderson Lake",
		"type_name": "Lake",
		"type_code": 951,
		"LongDD": -121.34444,
		"LatDD": 54.64806,
		"Country": "CAN",
		"ProvState": "British Columbia",
		"Abbrev": "CA-BC",
		"Closest": "Tumbler Ridge",
		"Distance": 57.6
	},
	{
		"type_enum": 1,
		"Name": "Anderson River",
		"type_name": "River",
		"type_code": 600,
		"LongDD": -121.435,
		"LatDD": 49.84167,
		"Country": "CAN",
		"ProvState": "British Columbia",
		"Abbrev": "CA-BC",
		"Closest": "Hells Gate",
		"Distance": 6.6
	},
	{
		"type_enum": 1,
		"Name": "Andrew Lake",
		"type_name": "Lake",
		"type_code": 951,
		"LongDD": -125.54667,
		"LatDD": 49.49444,
		"Country": "CAN",
		"ProvState": "British Columbia",
		"Abbrev": "CA-BC",
		"Closest": "Bevan",
		"Distance": 38.5
	},
	{
		"type_enum": 1,
		"Name": "Andrew Lake",
		"type_name": "Lake",
		"type_code": 951,
		"LongDD": -120.67417,
		"LatDD": 50.56639,
		"Country": "CAN",
		"ProvState": "British Columbia",
		"Abbrev": "CA-BC",
		"Closest": "Logan Lake",
		"Distance": 12.7
	},
	{
		"type_enum": 1,
		"Name": "Andromeda Lake",
		"type_name": "Lake",
		"type_code": 951,
		"LongDD": -127.80972,
		"LatDD": 50.15194,
		"Country": "CAN",
		"ProvState": "British Columbia",
		"Abbrev": "CA-BC",
		"Closest": "Port Alice",
		"Distance": 38.1
	},
	{
		"type_enum": 1,
		"Name": "Andros Lake",
		"type_name": "Lake",
		"type_code": 951,
		"LongDD": -124.46667,
		"LatDD": 53.54444,
		"Country": "CAN",
		"ProvState": "British Columbia",
		"Abbrev": "CA-BC",
		"Closest": "Lily Lake",
		"Distance": 41.8
	},
	{
		"type_enum": 1,
		"Name": "Andrus Lake",
		"type_name": "Lake",
		"type_code": 951,
		"LongDD": -120.60833,
		"LatDD": 50.88778,
		"Country": "CAN",
		"ProvState": "British Columbia",
		"Abbrev": "CA-BC",
		"Closest": "Copper Creek",
		"Distance": 16.1
	},
	{
		"type_enum": 1,
		"Name": "Andy Bailey Lake",
		"type_name": "Lake",
		"type_code": 951,
		"LongDD": -122.50583,
		"LatDD": 58.54778,
		"Country": "CAN",
		"ProvState": "British Columbia",
		"Abbrev": "CA-BC",
		"Closest": "Muskwa",
		"Distance": 26
	},
	{
		"type_enum": 1,
		"Name": "Andy Lake",
		"type_name": "Lake",
		"type_code": 951,
		"LongDD": -120.03139,
		"LatDD": 50.79111,
		"Country": "CAN",
		"ProvState": "British Columbia",
		"Abbrev": "CA-BC",
		"Closest": "Campbell Creek",
		"Distance": 15.3
	},
	{
		"type_enum": 1,
		"Name": "Andys Lake",
		"type_name": "Lake",
		"type_code": 951,
		"LongDD": -120.92806,
		"LatDD": 49.74611,
		"Country": "CAN",
		"ProvState": "British Columbia",
		"Abbrev": "CA-BC",
		"Closest": "Brookmere",
		"Distance": 8.9
	},
	{
		"type_enum": 1,
		"Name": "Angel Lake",
		"type_name": "Lake",
		"type_code": 951,
		"LongDD": -132.87861,
		"LatDD": 59.49972,
		"Country": "CAN",
		"ProvState": "British Columbia",
		"Abbrev": "CA-BC",
		"Closest": "Surprise",
		"Distance": 33.8
	},
	{
		"type_enum": 1,
		"Name": "Angler Lake",
		"type_name": "Lake",
		"type_code": 951,
		"LongDD": -127.22278,
		"LatDD": 50.47222,
		"Country": "CAN",
		"ProvState": "British Columbia",
		"Abbrev": "CA-BC",
		"Closest": "Benson Lake",
		"Distance": 11.8
	},
	{
		"type_enum": 1,
		"Name": "Angly Lake",
		"type_name": "Lake",
		"type_code": 951,
		"LongDD": -124.65889,
		"LatDD": 54.2325,
		"Country": "CAN",
		"ProvState": "British Columbia",
		"Abbrev": "CA-BC",
		"Closest": "Lejac",
		"Distance": 21.1
	},
	{
		"type_enum": 1,
		"Name": "Angora Lake",
		"type_name": "Lake",
		"type_code": 951,
		"LongDD": -125.53472,
		"LatDD": 49.09056,
		"Country": "CAN",
		"ProvState": "British Columbia",
		"Abbrev": "CA-BC",
		"Closest": "Port Albion",
		"Distance": 15.5
	},
	{
		"type_enum": 1,
		"Name": "Angus Horne Lake",
		"type_name": "Lake",
		"type_code": 951,
		"LongDD": -119.80139,
		"LatDD": 52.34861,
		"Country": "CAN",
		"ProvState": "British Columbia",
		"Abbrev": "CA-BC",
		"Closest": "Albreda",
		"Distance": 53.9
	},
	{
		"type_enum": 1,
		"Name": "Angus Lake",
		"type_name": "Lake",
		"type_code": 951,
		"LongDD": -125.63694,
		"LatDD": 49.09,
		"Country": "CAN",
		"ProvState": "British Columbia",
		"Abbrev": "CA-BC",
		"Closest": "Port Albion",
		"Distance": 16.9
	},
	{
		"type_enum": 1,
		"Name": "Angus Lake",
		"type_name": "Lake",
		"type_code": 951,
		"LongDD": -122.01806,
		"LatDD": 53.0075,
		"Country": "CAN",
		"ProvState": "British Columbia",
		"Abbrev": "CA-BC",
		"Closest": "Coldspring House",
		"Distance": 4.5
	},
	{
		"type_enum": 1,
		"Name": "Anischeldt Lake",
		"type_name": "Lake",
		"type_code": 951,
		"LongDD": -121.25722,
		"LatDD": 50.28861,
		"Country": "CAN",
		"ProvState": "British Columbia",
		"Abbrev": "CA-BC",
		"Closest": "Clapperton",
		"Distance": 5.7
	},
	{
		"type_enum": 1,
		"Name": "Anna Lake",
		"type_name": "Lake",
		"type_code": 951,
		"LongDD": -125.30639,
		"LatDD": 50.5025,
		"Country": "CAN",
		"ProvState": "British Columbia",
		"Abbrev": "CA-BC",
		"Closest": "Thurlow",
		"Distance": 7.2
	},
	{
		"type_enum": 1,
		"Name": "Anna Lake",
		"type_name": "Lake",
		"type_code": 951,
		"LongDD": -131.86639,
		"LatDD": 52.69333,
		"Country": "CAN",
		"ProvState": "British Columbia",
		"Abbrev": "CA-BC",
		"Closest": "Lockeport",
		"Distance": 3.4
	},
	{
		"type_enum": 1,
		"Name": "Annabelle Lake",
		"type_name": "Lake",
		"type_code": 951,
		"LongDD": -127.45167,
		"LatDD": 51.26361,
		"Country": "CAN",
		"ProvState": "British Columbia",
		"Abbrev": "CA-BC",
		"Closest": "Warner Bay",
		"Distance": 34.1
	},
	{
		"type_enum": 1,
		"Name": "Anne Lake",
		"type_name": "Lake",
		"type_code": 951,
		"LongDD": -122.82556,
		"LatDD": 49.55333,
		"Country": "CAN",
		"ProvState": "British Columbia",
		"Abbrev": "CA-BC",
		"Closest": "Alvin",
		"Distance": 14.8
	},
	{
		"type_enum": 1,
		"Name": "Annette Lake",
		"type_name": "Lake",
		"type_code": 951,
		"LongDD": -121.31583,
		"LatDD": 52.53167,
		"Country": "CAN",
		"ProvState": "British Columbia",
		"Abbrev": "CA-BC",
		"Closest": "Keithley Creek",
		"Distance": 27
	},
	{
		"type_enum": 1,
		"Name": "Another Lake",
		"type_name": "Lake",
		"type_code": 951,
		"LongDD": -120.23778,
		"LatDD": 49.88972,
		"Country": "CAN",
		"ProvState": "British Columbia",
		"Abbrev": "CA-BC",
		"Closest": "Jellicoe",
		"Distance": 23.2
	},
	{
		"type_enum": 1,
		"Name": "Anser Lake",
		"type_name": "Lake",
		"type_code": 951,
		"LongDD": -131.68972,
		"LatDD": 54.11361,
		"Country": "CAN",
		"ProvState": "British Columbia",
		"Abbrev": "CA-BC",
		"Closest": "Masset",
		"Distance": 31.9
	},
	{
		"type_enum": 1,
		"Name": "Anstey River",
		"type_name": "River",
		"type_code": 600,
		"LongDD": -118.89917,
		"LatDD": 51.13111,
		"Country": "CAN",
		"ProvState": "British Columbia",
		"Abbrev": "CA-BC",
		"Closest": "Albas",
		"Distance": 11.2
	},
	{
		"type_enum": 1,
		"Name": "Ant Lake",
		"type_name": "Lake",
		"type_code": 951,
		"LongDD": -125.85833,
		"LatDD": 52.1275,
		"Country": "CAN",
		"ProvState": "British Columbia",
		"Abbrev": "CA-BC",
		"Closest": "Atnarko",
		"Distance": 30.3
	},
	{
		"type_enum": 1,
		"Name": "Ant Lake",
		"type_name": "Lake",
		"type_code": 951,
		"LongDD": -123.23028,
		"LatDD": 54.81111,
		"Country": "CAN",
		"ProvState": "British Columbia",
		"Abbrev": "CA-BC",
		"Closest": "Anzac",
		"Distance": 47.1
	},
	{
		"type_enum": 1,
		"Name": "Antimony Lake",
		"type_name": "Lake",
		"type_code": 951,
		"LongDD": -121.87389,
		"LatDD": 50.16583,
		"Country": "CAN",
		"ProvState": "British Columbia",
		"Abbrev": "CA-BC",
		"Closest": "Lytton",
		"Distance": 22
	},
	{
		"type_enum": 1,
		"Name": "Antler Lake",
		"type_name": "Lake",
		"type_code": 951,
		"LongDD": -120.86583,
		"LatDD": 50.38528,
		"Country": "CAN",
		"ProvState": "British Columbia",
		"Abbrev": "CA-BC",
		"Closest": "Logan Lake",
		"Distance": 12.7
	},
	{
		"type_enum": 1,
		"Name": "Antler Lake",
		"type_name": "Lake",
		"type_code": 951,
		"LongDD": -126.05167,
		"LatDD": 49.80472,
		"Country": "CAN",
		"ProvState": "British Columbia",
		"Abbrev": "CA-BC",
		"Closest": "Gold River",
		"Distance": 2.6
	},
	{
		"type_enum": 1,
		"Name": "Antoine Lake",
		"type_name": "Lake",
		"type_code": 951,
		"LongDD": -121.51917,
		"LatDD": 52.41556,
		"Country": "CAN",
		"ProvState": "British Columbia",
		"Abbrev": "CA-BC",
		"Closest": "Big Lake Ranch",
		"Distance": 22.4
	},
	{
		"type_enum": 1,
		"Name": "Anuk River",
		"type_name": "River",
		"type_code": 600,
		"LongDD": -131.70056,
		"LatDD": 57.11361,
		"Country": "CAN",
		"ProvState": "British Columbia",
		"Abbrev": "CA-BC",
		"Closest": "Fowler",
		"Distance": 31.4
	},
	{
		"type_enum": 1,
		"Name": "Anutz Lake",
		"type_name": "Lake",
		"type_code": 951,
		"LongDD": -126.92278,
		"LatDD": 50.30139,
		"Country": "CAN",
		"ProvState": "British Columbia",
		"Abbrev": "CA-BC",
		"Closest": "Benson Lake",
		"Distance": 23.2
	},
	{
		"type_enum": 1,
		"Name": "Anvil Lake",
		"type_name": "Lake",
		"type_code": 951,
		"LongDD": -129.88722,
		"LatDD": 58.94278,
		"Country": "CAN",
		"ProvState": "British Columbia",
		"Abbrev": "CA-BC",
		"Closest": "Porter Landing",
		"Distance": 20
	},
	{
		"type_enum": 1,
		"Name": "Anvil Lake",
		"type_name": "Lake",
		"type_code": 951,
		"LongDD": -124.98389,
		"LatDD": 50.08417,
		"Country": "CAN",
		"ProvState": "British Columbia",
		"Abbrev": "CA-BC",
		"Closest": "Whaletown",
		"Distance": 5
	},
	{
		"type_enum": 1,
		"Name": "Anzac Lake",
		"type_name": "Lake",
		"type_code": 951,
		"LongDD": -127.27194,
		"LatDD": 53.98639,
		"Country": "CAN",
		"ProvState": "British Columbia",
		"Abbrev": "CA-BC",
		"Closest": "Noralee",
		"Distance": 54.8
	},
	{
		"type_enum": 1,
		"Name": "Anzac River",
		"type_name": "River",
		"type_code": 600,
		"LongDD": -122.53667,
		"LatDD": 54.79778,
		"Country": "CAN",
		"ProvState": "British Columbia",
		"Abbrev": "CA-BC",
		"Closest": "Anzac",
		"Distance": 4.6
	},
	{
		"type_enum": 1,
		"Name": "Anzus Lake",
		"type_name": "Lake",
		"type_code": 951,
		"LongDD": -125.12611,
		"LatDD": 53.93,
		"Country": "CAN",
		"ProvState": "British Columbia",
		"Abbrev": "CA-BC",
		"Closest": "Glenannan",
		"Distance": 12.7
	},
	{
		"type_enum": 1,
		"Name": "Ape Lake",
		"type_name": "Lake",
		"type_code": 951,
		"LongDD": -126.17639,
		"LatDD": 52.09667,
		"Country": "CAN",
		"ProvState": "British Columbia",
		"Abbrev": "CA-BC",
		"Closest": "South Bentinck",
		"Distance": 34
	},
	{
		"type_enum": 1,
		"Name": "Apollo Lake",
		"type_name": "Lake",
		"type_code": 951,
		"LongDD": -120.81306,
		"LatDD": 51.6625,
		"Country": "CAN",
		"ProvState": "British Columbia",
		"Abbrev": "CA-BC",
		"Closest": "Deka Lake",
		"Distance": 6.5
	},
	{
		"type_enum": 1,
		"Name": "Apple River",
		"type_name": "River",
		"type_code": 600,
		"LongDD": -125.41556,
		"LatDD": 50.71667,
		"Country": "CAN",
		"ProvState": "British Columbia",
		"Abbrev": "CA-BC",
		"Closest": "George River",
		"Distance": 19.3
	},
	{
		"type_enum": 1,
		"Name": "Aramis Lakes",
		"type_name": "Lakes",
		"type_code": 952,
		"LongDD": -125.32611,
		"LatDD": 57.73639,
		"Country": "CAN",
		"ProvState": "British Columbia",
		"Abbrev": "CA-BC",
		"Closest": "Magnum Mine",
		"Distance": 85.4
	},
	{
		"type_enum": 1,
		"Name": "Arbor Lake",
		"type_name": "Lake",
		"type_code": 951,
		"LongDD": -129.065,
		"LatDD": 55.73444,
		"Country": "CAN",
		"ProvState": "British Columbia",
		"Abbrev": "CA-BC",
		"Closest": "Alice Arm",
		"Distance": 37.6
	},
	{
		"type_enum": 1,
		"Name": "Archie Lake",
		"type_name": "Lake",
		"type_code": 951,
		"LongDD": -128.97361,
		"LatDD": 52.87111,
		"Country": "CAN",
		"ProvState": "British Columbia",
		"Abbrev": "CA-BC",
		"Closest": "Weewanie",
		"Distance": 92.1
	},
	{
		"type_enum": 1,
		"Name": "Arctic Lake",
		"type_name": "Lake",
		"type_code": 951,
		"LongDD": -130.82639,
		"LatDD": 57.23083,
		"Country": "CAN",
		"ProvState": "British Columbia",
		"Abbrev": "CA-BC",
		"Closest": "Bob Quinn Lake",
		"Distance": 45.3
	},
	{
		"type_enum": 1,
		"Name": "Arctic Lake",
		"type_name": "Lake",
		"type_code": 951,
		"LongDD": -121.67306,
		"LatDD": 54.42056,
		"Country": "CAN",
		"ProvState": "British Columbia",
		"Abbrev": "CA-BC",
		"Closest": "Newlands",
		"Distance": 49.4
	},
	{
		"type_enum": 1,
		"Name": "Arctic Lake",
		"type_name": "Lake",
		"type_code": 951,
		"LongDD": -124.12556,
		"LatDD": 50.125,
		"Country": "CAN",
		"ProvState": "British Columbia",
		"Abbrev": "CA-BC",
		"Closest": "Homfray Creek",
		"Distance": 41
	},
	{
		"type_enum": 1,
		"Name": "Arctomys Lake",
		"type_name": "Lake",
		"type_code": 951,
		"LongDD": -118.89778,
		"LatDD": 53.07972,
		"Country": "CAN",
		"ProvState": "British Columbia",
		"Abbrev": "CA-BC",
		"Closest": "Red Pass",
		"Distance": 12.7
	},
	{
		"type_enum": 1,
		"Name": "Arden Lake",
		"type_name": "Lake",
		"type_code": 951,
		"LongDD": -129.66639,
		"LatDD": 54.33917,
		"Country": "CAN",
		"ProvState": "British Columbia",
		"Abbrev": "CA-BC",
		"Closest": "Osland",
		"Distance": 39.8
	},
	{
		"type_enum": 1,
		"Name": "Arkansas Lake",
		"type_name": "Lake",
		"type_code": 951,
		"LongDD": -116.97167,
		"LatDD": 49.16917,
		"Country": "CAN",
		"ProvState": "British Columbia",
		"Abbrev": "CA-BC",
		"Closest": "Jersey",
		"Distance": 20.5
	},
	{
		"type_enum": 1,
		"Name": "Arkell Lake",
		"type_name": "Lake",
		"type_code": 951,
		"LongDD": -129.14278,
		"LatDD": 53.6075,
		"Country": "CAN",
		"ProvState": "British Columbia",
		"Abbrev": "CA-BC",
		"Closest": "Weewanie",
		"Distance": 25
	},
	{
		"type_enum": 1,
		"Name": "Arlington Lakes",
		"type_name": "Lakes",
		"type_code": 952,
		"LongDD": -119.08222,
		"LatDD": 49.61611,
		"Country": "CAN",
		"ProvState": "British Columbia",
		"Abbrev": "CA-BC",
		"Closest": "Carmi",
		"Distance": 13.1
	},
	{
		"type_enum": 1,
		"Name": "Armstrong Lake",
		"type_name": "Lake",
		"type_code": 951,
		"LongDD": -121.36167,
		"LatDD": 52.34444,
		"Country": "CAN",
		"ProvState": "British Columbia",
		"Abbrev": "CA-BC",
		"Closest": "Black Creek",
		"Distance": 19
	},
	{
		"type_enum": 1,
		"Name": "Armstrong Lake",
		"type_name": "Lake",
		"type_code": 951,
		"LongDD": -117.69222,
		"LatDD": 50.69889,
		"Country": "CAN",
		"ProvState": "British Columbia",
		"Abbrev": "CA-BC",
		"Closest": "Beaton",
		"Distance": 4.8
	},
	{
		"type_enum": 1,
		"Name": "Arnica Lake",
		"type_name": "Lake",
		"type_code": 951,
		"LongDD": -125.33306,
		"LatDD": 52.74361,
		"Country": "CAN",
		"ProvState": "British Columbia",
		"Abbrev": "CA-BC",
		"Closest": "Ulkatcho",
		"Distance": 37.7
	},
	{
		"type_enum": 1,
		"Name": "Arnica Lake",
		"type_name": "Lake",
		"type_code": 951,
		"LongDD": -118.41306,
		"LatDD": 50.75222,
		"Country": "CAN",
		"ProvState": "British Columbia",
		"Abbrev": "CA-BC",
		"Closest": "Revelstoke",
		"Distance": 31.4
	},
	{
		"type_enum": 1,
		"Name": "Arnica Lake",
		"type_name": "Lake",
		"type_code": 951,
		"LongDD": -125.61694,
		"LatDD": 49.59306,
		"Country": "CAN",
		"ProvState": "British Columbia",
		"Abbrev": "CA-BC",
		"Closest": "Gold River",
		"Distance": 37.4
	},
	{
		"type_enum": 1,
		"Name": "Arrowhead Lake",
		"type_name": "Lake",
		"type_code": 951,
		"LongDD": -122.35083,
		"LatDD": 50.12972,
		"Country": "CAN",
		"ProvState": "British Columbia",
		"Abbrev": "CA-BC",
		"Closest": "Owl Creek",
		"Distance": 36.4
	},
	{
		"type_enum": 1,
		"Name": "Arrowhead Lake",
		"type_name": "Lake",
		"type_code": 951,
		"LongDD": -124.13028,
		"LatDD": 49.98722,
		"Country": "CAN",
		"ProvState": "British Columbia",
		"Abbrev": "CA-BC",
		"Closest": "Earls Cove",
		"Distance": 27.6
	},
	{
		"type_enum": 1,
		"Name": "Arrowhead Lake",
		"type_name": "Lake",
		"type_code": 951,
		"LongDD": -129.05694,
		"LatDD": 55.59778,
		"Country": "CAN",
		"ProvState": "British Columbia",
		"Abbrev": "CA-BC",
		"Closest": "Alice Arm",
		"Distance": 28.7
	},
	{
		"type_enum": 1,
		"Name": "Arrowsmith Lake",
		"type_name": "Lake",
		"type_code": 951,
		"LongDD": -124.54278,
		"LatDD": 49.21778,
		"Country": "CAN",
		"ProvState": "British Columbia",
		"Abbrev": "CA-BC",
		"Closest": "Qualicum Beach",
		"Distance": 16.2
	},
	{
		"type_enum": 1,
		"Name": "Arthur Lake",
		"type_name": "Lake",
		"type_code": 951,
		"LongDD": -122.64,
		"LatDD": 52.2425,
		"Country": "CAN",
		"ProvState": "British Columbia",
		"Abbrev": "CA-BC",
		"Closest": "Meldrum Creek",
		"Distance": 26.2
	},
	{
		"type_enum": 1,
		"Name": "Arthur Lake",
		"type_name": "Lake",
		"type_code": 951,
		"LongDD": -119.46333,
		"LatDD": 50.53889,
		"Country": "CAN",
		"ProvState": "British Columbia",
		"Abbrev": "CA-BC",
		"Closest": "Yankee Flats",
		"Distance": 7.3
	},
	{
		"type_enum": 1,
		"Name": "Arthur Lake",
		"type_name": "Lake",
		"type_code": 951,
		"LongDD": -124.385,
		"LatDD": 53.57389,
		"Country": "CAN",
		"ProvState": "British Columbia",
		"Abbrev": "CA-BC",
		"Closest": "Lily Lake",
		"Distance": 39.6
	},
	{
		"type_enum": 1,
		"Name": "Artificial Lake",
		"type_name": "Lake",
		"type_code": 951,
		"LongDD": -125.49333,
		"LatDD": 50.38139,
		"Country": "CAN",
		"ProvState": "British Columbia",
		"Abbrev": "CA-BC",
		"Closest": "Rock Bay",
		"Distance": 5.4
	},
	{
		"type_enum": 1,
		"Name": "Artlish River",
		"type_name": "River",
		"type_code": 600,
		"LongDD": -127.0875,
		"LatDD": 50.115,
		"Country": "CAN",
		"ProvState": "British Columbia",
		"Abbrev": "CA-BC",
		"Closest": "Fair Harbour",
		"Distance": 6.3
	},
	{
		"type_enum": 1,
		"Name": "Arum Lake",
		"type_name": "Lake",
		"type_code": 951,
		"LongDD": -125.07,
		"LatDD": 49.535,
		"Country": "CAN",
		"ProvState": "British Columbia",
		"Abbrev": "CA-BC",
		"Closest": "Cumberland",
		"Distance": 9.7
	},
	{
		"type_enum": 1,
		"Name": "Asahal Lake",
		"type_name": "Lake",
		"type_code": 951,
		"LongDD": -122.01056,
		"LatDD": 52.14472,
		"Country": "CAN",
		"ProvState": "British Columbia",
		"Abbrev": "CA-BC",
		"Closest": "Dugan Lake",
		"Distance": 6.1
	},
	{
		"type_enum": 1,
		"Name": "Ash Lake",
		"type_name": "Lake",
		"type_code": 951,
		"LongDD": -125.0975,
		"LatDD": 49.41583,
		"Country": "CAN",
		"ProvState": "British Columbia",
		"Abbrev": "CA-BC",
		"Closest": "Great Central",
		"Distance": 13.8
	},
	{
		"type_enum": 1,
		"Name": "Ash Lake",
		"type_name": "Lake",
		"type_code": 951,
		"LongDD": -127.70889,
		"LatDD": 51.71,
		"Country": "CAN",
		"ProvState": "British Columbia",
		"Abbrev": "CA-BC",
		"Closest": "Dawsons Landing",
		"Distance": 16.5
	},
	{
		"type_enum": 1,
		"Name": "Ash River",
		"type_name": "River",
		"type_code": 600,
		"LongDD": -124.97806,
		"LatDD": 49.36194,
		"Country": "CAN",
		"ProvState": "British Columbia",
		"Abbrev": "CA-BC",
		"Closest": "Great Central",
		"Distance": 5
	},
	{
		"type_enum": 1,
		"Name": "Ashlar Lake",
		"type_name": "Lake",
		"type_code": 951,
		"LongDD": -125.30167,
		"LatDD": 50.28167,
		"Country": "CAN",
		"ProvState": "British Columbia",
		"Abbrev": "CA-BC",
		"Closest": "Granite Bay",
		"Distance": 5.4
	},
	{
		"type_enum": 1,
		"Name": "Ashman Lake",
		"type_name": "Lake",
		"type_code": 951,
		"LongDD": -114.15806,
		"LatDD": 49.03028,
		"Country": "CAN",
		"ProvState": "British Columbia",
		"Abbrev": "CA-BC",
		"Closest": "Flathead",
		"Distance": 24
	},
	{
		"type_enum": 1,
		"Name": "Ashnola River",
		"type_name": "River",
		"type_code": 600,
		"LongDD": -119.9725,
		"LatDD": 49.22472,
		"Country": "CAN",
		"ProvState": "British Columbia",
		"Abbrev": "CA-BC",
		"Closest": "Keremeos",
		"Distance": 10.6
	},
	{
		"type_enum": 1,
		"Name": "Ashwood Lake",
		"type_name": "Lake",
		"type_code": 951,
		"LongDD": -129.97167,
		"LatDD": 55.72361,
		"Country": "CAN",
		"ProvState": "British Columbia",
		"Abbrev": "CA-BC",
		"Closest": "Stewart",
		"Distance": 23.9
	},
	{
		"type_enum": 1,
		"Name": "Asitka Lake",
		"type_name": "Lake",
		"type_code": 951,
		"LongDD": -126.36944,
		"LatDD": 56.54778,
		"Country": "CAN",
		"ProvState": "British Columbia",
		"Abbrev": "CA-BC",
		"Closest": "Ingenika Mine",
		"Distance": 74.5
	},
	{
		"type_enum": 1,
		"Name": "Asitka River",
		"type_name": "River",
		"type_code": 600,
		"LongDD": -126.78944,
		"LatDD": 56.39389,
		"Country": "CAN",
		"ProvState": "British Columbia",
		"Abbrev": "CA-BC",
		"Closest": "Fifth Cabin",
		"Distance": 72.1
	},
	{
		"type_enum": 1,
		"Name": "Asseek River",
		"type_name": "River",
		"type_code": 600,
		"LongDD": -126.67833,
		"LatDD": 51.96222,
		"Country": "CAN",
		"ProvState": "British Columbia",
		"Abbrev": "CA-BC",
		"Closest": "South Bentinck",
		"Distance": 9.2
	},
	{
		"type_enum": 1,
		"Name": "Assimilation Lake",
		"type_name": "Lake",
		"type_code": 951,
		"LongDD": -129.46639,
		"LatDD": 54.27861,
		"Country": "CAN",
		"ProvState": "British Columbia",
		"Abbrev": "CA-BC",
		"Closest": "Osland",
		"Distance": 48.3
	},
	{
		"type_enum": 1,
		"Name": "Assiniboine Lake",
		"type_name": "Lake",
		"type_code": 951,
		"LongDD": -115.67861,
		"LatDD": 50.85389,
		"Country": "CAN",
		"ProvState": "British Columbia",
		"Abbrev": "CA-BC",
		"Closest": "Kootenay Crossing",
		"Distance": 26.3
	},
	{
		"type_enum": 1,
		"Name": "Atan Lake",
		"type_name": "Lake",
		"type_code": 951,
		"LongDD": -121.38222,
		"LatDD": 53.19333,
		"Country": "CAN",
		"ProvState": "British Columbia",
		"Abbrev": "CA-BC",
		"Closest": "Stanley",
		"Distance": 28.5
	},
	{
		"type_enum": 1,
		"Name": "Atan Lake",
		"type_name": "Lake",
		"type_code": 951,
		"LongDD": -129.18389,
		"LatDD": 59.20083,
		"Country": "CAN",
		"ProvState": "British Columbia",
		"Abbrev": "CA-BC",
		"Closest": "McDame",
		"Distance": 3.4
	},
	{
		"type_enum": 1,
		"Name": "Atlatzi River",
		"type_name": "River",
		"type_code": 600,
		"LongDD": -126.11889,
		"LatDD": 51.01528,
		"Country": "CAN",
		"ProvState": "British Columbia",
		"Abbrev": "CA-BC",
		"Closest": "Kingcome",
		"Distance": 7
	},
	{
		"type_enum": 1,
		"Name": "Atleo River",
		"type_name": "River",
		"type_code": 600,
		"LongDD": -126.05806,
		"LatDD": 49.36972,
		"Country": "CAN",
		"ProvState": "British Columbia",
		"Abbrev": "CA-BC",
		"Closest": "Ahousat",
		"Distance": 9.6
	},
	{
		"type_enum": 1,
		"Name": "Atlin Lake",
		"type_name": "Lake",
		"type_code": 951,
		"LongDD": -133.72222,
		"LatDD": 59.53194,
		"Country": "CAN",
		"ProvState": "British Columbia",
		"Abbrev": "CA-BC",
		"Closest": "Scotia Bay",
		"Distance": 9.3
	},
	{
		"type_enum": 1,
		"Name": "Atlin River",
		"type_name": "River",
		"type_code": 600,
		"LongDD": -133.85417,
		"LatDD": 59.62194,
		"Country": "CAN",
		"ProvState": "British Columbia",
		"Abbrev": "CA-BC",
		"Closest": "Taku",
		"Distance": 1.3
	},
	{
		"type_enum": 1,
		"Name": "Atluck Lake",
		"type_name": "Lake",
		"type_code": 951,
		"LongDD": -126.96139,
		"LatDD": 50.21222,
		"Country": "CAN",
		"ProvState": "British Columbia",
		"Abbrev": "CA-BC",
		"Closest": "Fair Harbour",
		"Distance": 19.9
	},
	{
		"type_enum": 1,
		"Name": "Atna Lake",
		"type_name": "Lake",
		"type_code": 951,
		"LongDD": -127.79611,
		"LatDD": 54.02667,
		"Country": "CAN",
		"ProvState": "British Columbia",
		"Abbrev": "CA-BC",
		"Closest": "Kitimat",
		"Distance": 56
	},
	{
		"type_enum": 1,
		"Name": "Atna River",
		"type_name": "River",
		"type_code": 600,
		"LongDD": -127.75889,
		"LatDD": 54.01694,
		"Country": "CAN",
		"ProvState": "British Columbia",
		"Abbrev": "CA-BC",
		"Closest": "Kitimat",
		"Distance": 58.5
	},
	{
		"type_enum": 1,
		"Name": "Atnarko River",
		"type_name": "River",
		"type_code": 600,
		"LongDD": -126.08889,
		"LatDD": 52.37694,
		"Country": "CAN",
		"ProvState": "British Columbia",
		"Abbrev": "CA-BC",
		"Closest": "Atnarko",
		"Distance": 17.5
	},
	{
		"type_enum": 1,
		"Name": "Atwaykellesse River",
		"type_name": "River",
		"type_code": 600,
		"LongDD": -126.46722,
		"LatDD": 51.11056,
		"Country": "CAN",
		"ProvState": "British Columbia",
		"Abbrev": "CA-BC",
		"Closest": "Kingcome",
		"Distance": 25.5
	},
	{
		"type_enum": 1,
		"Name": "Atwell Lake",
		"type_name": "Lake",
		"type_code": 951,
		"LongDD": -123.56833,
		"LatDD": 51.71528,
		"Country": "CAN",
		"ProvState": "British Columbia",
		"Abbrev": "CA-BC",
		"Closest": "Nemaiah Valley",
		"Distance": 33.7
	},
	{
		"type_enum": 1,
		"Name": "Audrey Lake",
		"type_name": "Lake",
		"type_code": 951,
		"LongDD": -125.52028,
		"LatDD": 50.46667,
		"Country": "CAN",
		"ProvState": "British Columbia",
		"Abbrev": "CA-BC",
		"Closest": "Roy",
		"Distance": 5.6
	},
	{
		"type_enum": 1,
		"Name": "Augers Lake",
		"type_name": "Lake",
		"type_code": 951,
		"LongDD": -123.94944,
		"LatDD": 51.51056,
		"Country": "CAN",
		"ProvState": "British Columbia",
		"Abbrev": "CA-BC",
		"Closest": "Nemaiah Valley",
		"Distance": 5.5
	},
	{
		"type_enum": 1,
		"Name": "Augier Lake",
		"type_name": "Lake",
		"type_code": 951,
		"LongDD": -125.57806,
		"LatDD": 54.41528,
		"Country": "CAN",
		"ProvState": "British Columbia",
		"Abbrev": "CA-BC",
		"Closest": "Pendleton Bay",
		"Distance": 14.2
	},
	{
		"type_enum": 1,
		"Name": "August Lake",
		"type_name": "Lake",
		"type_code": 951,
		"LongDD": -120.71361,
		"LatDD": 59.95056,
		"Country": "CAN",
		"ProvState": "British Columbia",
		"Abbrev": "CA-BC",
		"Closest": "Snake River",
		"Distance": 141.4
	},
	{
		"type_enum": 1,
		"Name": "August Lake",
		"type_name": "Lake",
		"type_code": 951,
		"LongDD": -120.45028,
		"LatDD": 49.4325,
		"Country": "CAN",
		"ProvState": "British Columbia",
		"Abbrev": "CA-BC",
		"Closest": "Allenby",
		"Distance": 5.1
	},
	{
		"type_enum": 1,
		"Name": "Augustine Lake",
		"type_name": "Lake",
		"type_code": 951,
		"LongDD": -122.62722,
		"LatDD": 54.36222,
		"Country": "CAN",
		"ProvState": "British Columbia",
		"Abbrev": "CA-BC",
		"Closest": "Giscome",
		"Distance": 37
	},
	{
		"type_enum": 1,
		"Name": "Augustine Lake",
		"type_name": "Lake",
		"type_code": 951,
		"LongDD": -121.43444,
		"LatDD": 52.38167,
		"Country": "CAN",
		"ProvState": "British Columbia",
		"Abbrev": "CA-BC",
		"Closest": "Black Creek",
		"Distance": 25.1
	},
	{
		"type_enum": 1,
		"Name": "Avalanche Lake",
		"type_name": "Lake",
		"type_code": 951,
		"LongDD": -125.50667,
		"LatDD": 52.07444,
		"Country": "CAN",
		"ProvState": "British Columbia",
		"Abbrev": "CA-BC",
		"Closest": "Charlotte Lake",
		"Distance": 21.9
	},
	{
		"type_enum": 1,
		"Name": "Averil Lake",
		"type_name": "Lake",
		"type_code": 951,
		"LongDD": -122.35917,
		"LatDD": 54.30389,
		"Country": "CAN",
		"ProvState": "British Columbia",
		"Abbrev": "CA-BC",
		"Closest": "Newlands",
		"Distance": 24.9
	},
	{
		"type_enum": 1,
		"Name": "Avery Lake",
		"type_name": "Lake",
		"type_code": 951,
		"LongDD": -119.71444,
		"LatDD": 51.52889,
		"Country": "CAN",
		"ProvState": "British Columbia",
		"Abbrev": "CA-BC",
		"Closest": "Clearwater",
		"Distance": 25.5
	},
	{
		"type_enum": 1,
		"Name": "Avis Lake",
		"type_name": "Lake",
		"type_code": 951,
		"LongDD": -126.83083,
		"LatDD": 59.99111,
		"Country": "CAN",
		"ProvState": "British Columbia",
		"Abbrev": "CA-BC",
		"Closest": "Smith River",
		"Distance": 25.2
	},
	{
		"type_enum": 1,
		"Name": "Avis Lakes",
		"type_name": "Lakes",
		"type_code": 952,
		"LongDD": -117.68472,
		"LatDD": 49.91333,
		"Country": "CAN",
		"ProvState": "British Columbia",
		"Abbrev": "CA-BC",
		"Closest": "Carrolls Landing",
		"Distance": 21
	},
	{
		"type_enum": 1,
		"Name": "Awun Lake",
		"type_name": "Lake",
		"type_code": 951,
		"LongDD": -132.56778,
		"LatDD": 53.60028,
		"Country": "CAN",
		"ProvState": "British Columbia",
		"Abbrev": "CA-BC",
		"Closest": "Shannon Bay",
		"Distance": 7.1
	},
	{
		"type_enum": 1,
		"Name": "Awun River",
		"type_name": "River",
		"type_code": 600,
		"LongDD": -132.52111,
		"LatDD": 53.65306,
		"Country": "CAN",
		"ProvState": "British Columbia",
		"Abbrev": "CA-BC",
		"Closest": "Shannon Bay",
		"Distance": 1.4
	},
	{
		"type_enum": 1,
		"Name": "Axe Lake",
		"type_name": "Lake",
		"type_code": 951,
		"LongDD": -122.06722,
		"LatDD": 51.98806,
		"Country": "CAN",
		"ProvState": "British Columbia",
		"Abbrev": "CA-BC",
		"Closest": "Williams Lake",
		"Distance": 16.5
	},
	{
		"type_enum": 1,
		"Name": "Axel Lake",
		"type_name": "Lake",
		"type_code": 951,
		"LongDD": -120.05167,
		"LatDD": 51.54139,
		"Country": "CAN",
		"ProvState": "British Columbia",
		"Abbrev": "CA-BC",
		"Closest": "Clearwater",
		"Distance": 11.7
	},
	{
		"type_enum": 1,
		"Name": "Axnegrelga Lake",
		"type_name": "Lake",
		"type_code": 951,
		"LongDD": -128.78333,
		"LatDD": 55.83778,
		"Country": "CAN",
		"ProvState": "British Columbia",
		"Abbrev": "CA-BC",
		"Closest": "Meziadin Junction",
		"Distance": 43.5
	},
	{
		"type_enum": 1,
		"Name": "Aylmer Lake",
		"type_name": "Lake",
		"type_code": 951,
		"LongDD": -119.71611,
		"LatDD": 50.84806,
		"Country": "CAN",
		"ProvState": "British Columbia",
		"Abbrev": "CA-BC",
		"Closest": "Chase",
		"Distance": 3.8
	},
	{
		"type_enum": 1,
		"Name": "Azouzetta Lake",
		"type_name": "Lake",
		"type_code": 951,
		"LongDD": -122.61278,
		"LatDD": 55.38667,
		"Country": "CAN",
		"ProvState": "British Columbia",
		"Abbrev": "CA-BC",
		"Closest": "Lemoray",
		"Distance": 19
	},
	{
		"type_enum": 1,
		"Name": "Azuklotz Lake",
		"type_name": "Lake",
		"type_code": 951,
		"LongDD": -126.73806,
		"LatDD": 56.07667,
		"Country": "CAN",
		"ProvState": "British Columbia",
		"Abbrev": "CA-BC",
		"Closest": "Bulkley House",
		"Distance": 52.4
	},
	{
		"type_enum": 1,
		"Name": "Azure Lake",
		"type_name": "Lake",
		"type_code": 951,
		"LongDD": -120.1075,
		"LatDD": 52.37111,
		"Country": "CAN",
		"ProvState": "British Columbia",
		"Abbrev": "CA-BC",
		"Closest": "Black Creek",
		"Distance": 67.5
	},
	{
		"type_enum": 1,
		"Name": "Azure River",
		"type_name": "River",
		"type_code": 600,
		"LongDD": -119.93889,
		"LatDD": 52.40778,
		"Country": "CAN",
		"ProvState": "British Columbia",
		"Abbrev": "CA-BC",
		"Closest": "Albreda",
		"Distance": 58.4
	},
	{
		"type_enum": 1,
		"Name": "Babcock Lake",
		"type_name": "Lake",
		"type_code": 951,
		"LongDD": -121.18917,
		"LatDD": 53.08417,
		"Country": "CAN",
		"ProvState": "British Columbia",
		"Abbrev": "CA-BC",
		"Closest": "Stanley",
		"Distance": 35.7
	},
	{
		"type_enum": 1,
		"Name": "Babette Lake",
		"type_name": "Lake",
		"type_code": 951,
		"LongDD": -120.20972,
		"LatDD": 54.01389,
		"Country": "CAN",
		"ProvState": "British Columbia",
		"Abbrev": "CA-BC",
		"Closest": "Loos",
		"Distance": 56.2
	},
	{
		"type_enum": 1,
		"Name": "Babine Lake",
		"type_name": "Lake",
		"type_code": 951,
		"LongDD": -126.01389,
		"LatDD": 54.77639,
		"Country": "CAN",
		"ProvState": "British Columbia",
		"Abbrev": "CA-BC",
		"Closest": "Granisle",
		"Distance": 17.3
	},
	{
		"type_enum": 1,
		"Name": "Babine River",
		"type_name": "River",
		"type_code": 600,
		"LongDD": -127.69361,
		"LatDD": 55.6975,
		"Country": "CAN",
		"ProvState": "British Columbia",
		"Abbrev": "CA-BC",
		"Closest": "Hazelton",
		"Distance": 49.1
	},
	{
		"type_enum": 1,
		"Name": "Baboon Lake",
		"type_name": "Lake",
		"type_code": 951,
		"LongDD": -126.31056,
		"LatDD": 54.69694,
		"Country": "CAN",
		"ProvState": "British Columbia",
		"Abbrev": "CA-BC",
		"Closest": "Granisle",
		"Distance": 21.9
	},
	{
		"type_enum": 1,
		"Name": "Back Lake",
		"type_name": "Lake",
		"type_code": 951,
		"LongDD": -115.3925,
		"LatDD": 50.70167,
		"Country": "CAN",
		"ProvState": "British Columbia",
		"Abbrev": "CA-BC",
		"Closest": "Radium Hot Springs",
		"Distance": 49
	},
	{
		"type_enum": 1,
		"Name": "Backlund Lake",
		"type_name": "Lake",
		"type_code": 951,
		"LongDD": -129.42139,
		"LatDD": 53.64083,
		"Country": "CAN",
		"ProvState": "British Columbia",
		"Abbrev": "CA-BC",
		"Closest": "Weewanie",
		"Distance": 42
	},
	{
		"type_enum": 1,
		"Name": "Bacon Lake",
		"type_name": "Lake",
		"type_code": 951,
		"LongDD": -121.88806,
		"LatDD": 52.41389,
		"Country": "CAN",
		"ProvState": "British Columbia",
		"Abbrev": "CA-BC",
		"Closest": "Big Lake Ranch",
		"Distance": 2.6
	},
	{
		"type_enum": 1,
		"Name": "Bacon Lake",
		"type_name": "Lake",
		"type_code": 951,
		"LongDD": -125.62806,
		"LatDD": 49.97083,
		"Country": "CAN",
		"ProvState": "British Columbia",
		"Abbrev": "CA-BC",
		"Closest": "Bloedel",
		"Distance": 23.8
	},
	{
		"type_enum": 1,
		"Name": "Badger Lake",
		"type_name": "Lake",
		"type_code": 951,
		"LongDD": -120.13778,
		"LatDD": 51.02972,
		"Country": "CAN",
		"ProvState": "British Columbia",
		"Abbrev": "CA-BC",
		"Closest": "Exlou",
		"Distance": 10.1
	},
	{
		"type_enum": 1,
		"Name": "Baezaeko River",
		"type_name": "River",
		"type_code": 600,
		"LongDD": -123.67139,
		"LatDD": 53.135,
		"Country": "CAN",
		"ProvState": "British Columbia",
		"Abbrev": "CA-BC",
		"Closest": "Blackwater",
		"Distance": 39.4
	},
	{
		"type_enum": 1,
		"Name": "Baile Lake",
		"type_name": "Lake",
		"type_code": 951,
		"LongDD": -124.88056,
		"LatDD": 50.25028,
		"Country": "CAN",
		"ProvState": "British Columbia",
		"Abbrev": "CA-BC",
		"Closest": "Teakerne Arm",
		"Distance": 8.5
	},
	{
		"type_enum": 1,
		"Name": "Baillon Lake",
		"type_name": "Lake",
		"type_code": 951,
		"LongDD": -121.61917,
		"LatDD": 52.36917,
		"Country": "CAN",
		"ProvState": "British Columbia",
		"Abbrev": "CA-BC",
		"Closest": "Big Lake Ranch",
		"Distance": 16.5
	},
	{
		"type_enum": 1,
		"Name": "Bainbridge Lake",
		"type_name": "Lake",
		"type_code": 951,
		"LongDD": -124.73306,
		"LatDD": 49.20361,
		"Country": "CAN",
		"ProvState": "British Columbia",
		"Abbrev": "CA-BC",
		"Closest": "Port Alberni",
		"Distance": 6.3
	},
	{
		"type_enum": 1,
		"Name": "Baird Lake",
		"type_name": "Lake",
		"type_code": 951,
		"LongDD": -117.23528,
		"LatDD": 51.17583,
		"Country": "CAN",
		"ProvState": "British Columbia",
		"Abbrev": "CA-BC",
		"Closest": "Golden",
		"Distance": 23.2
	},
	{
		"type_enum": 1,
		"Name": "Baird Lake",
		"type_name": "Lake",
		"type_code": 951,
		"LongDD": -118.79278,
		"LatDD": 50.56861,
		"Country": "CAN",
		"ProvState": "British Columbia",
		"Abbrev": "CA-BC",
		"Closest": "Enderby",
		"Distance": 24.6
	},
	{
		"type_enum": 1,
		"Name": "Baird Lake",
		"type_name": "Lake",
		"type_code": 951,
		"LongDD": -119.74806,
		"LatDD": 51.32694,
		"Country": "CAN",
		"ProvState": "British Columbia",
		"Abbrev": "CA-BC",
		"Closest": "Chu Chua",
		"Distance": 29.2
	},
	{
		"type_enum": 1,
		"Name": "Baker Lake",
		"type_name": "Lake",
		"type_code": 951,
		"LongDD": -119.62472,
		"LatDD": 49.72083,
		"Country": "CAN",
		"ProvState": "British Columbia",
		"Abbrev": "CA-BC",
		"Closest": "Chute Lake",
		"Distance": 7.8
	},
	{
		"type_enum": 1,
		"Name": "Balagno Lake",
		"type_name": "Lake",
		"type_code": 951,
		"LongDD": -130.09889,
		"LatDD": 54.21806,
		"Country": "CAN",
		"ProvState": "British Columbia",
		"Abbrev": "CA-BC",
		"Closest": "Osland",
		"Distance": 10.4
	},
	{
		"type_enum": 1,
		"Name": "Balaklava Lake",
		"type_name": "Lake",
		"type_code": 951,
		"LongDD": -127.63083,
		"LatDD": 50.85111,
		"Country": "CAN",
		"ProvState": "British Columbia",
		"Abbrev": "CA-BC",
		"Closest": "Shushartie",
		"Distance": 15.7
	},
	{
		"type_enum": 1,
		"Name": "Baldwin Lake",
		"type_name": "Lake",
		"type_code": 951,
		"LongDD": -120.82806,
		"LatDD": 51.88556,
		"Country": "CAN",
		"ProvState": "British Columbia",
		"Abbrev": "CA-BC",
		"Closest": "Mahood Falls",
		"Distance": 13.5
	},
	{
		"type_enum": 1,
		"Name": "Balfour Lake",
		"type_name": "Lake",
		"type_code": 951,
		"LongDD": -120.81361,
		"LatDD": 51.69361,
		"Country": "CAN",
		"ProvState": "British Columbia",
		"Abbrev": "CA-BC",
		"Closest": "Deka Lake",
		"Distance": 9.8
	},
	{
		"type_enum": 1,
		"Name": "Ball Lake",
		"type_name": "Lake",
		"type_code": 951,
		"LongDD": -125.31528,
		"LatDD": 49.69611,
		"Country": "CAN",
		"ProvState": "British Columbia",
		"Abbrev": "CA-BC",
		"Closest": "Headquarters",
		"Distance": 16.3
	},
	{
		"type_enum": 1,
		"Name": "Balsam Lake",
		"type_name": "Lake",
		"type_code": 951,
		"LongDD": -122.71472,
		"LatDD": 54.31417,
		"Country": "CAN",
		"ProvState": "British Columbia",
		"Abbrev": "CA-BC",
		"Closest": "Giscome",
		"Distance": 35.6
	},
	{
		"type_enum": 1,
		"Name": "Balsam Lakes",
		"type_name": "Lakes",
		"type_code": 952,
		"LongDD": -118.14917,
		"LatDD": 51.04083,
		"Country": "CAN",
		"ProvState": "British Columbia",
		"Abbrev": "CA-BC",
		"Closest": "Revelstoke",
		"Distance": 5.7
	},
	{
		"type_enum": 1,
		"Name": "Banana Lake",
		"type_name": "Lake",
		"type_code": 951,
		"LongDD": -119.80861,
		"LatDD": 49.93167,
		"Country": "CAN",
		"ProvState": "British Columbia",
		"Abbrev": "CA-BC",
		"Closest": "West Kelowna City of",
		"Distance": 17.1
	},
	{
		"type_enum": 1,
		"Name": "Banana Lake",
		"type_name": "Lake",
		"type_code": 951,
		"LongDD": -125.44722,
		"LatDD": 52.07167,
		"Country": "CAN",
		"ProvState": "British Columbia",
		"Abbrev": "CA-BC",
		"Closest": "Charlotte Lake",
		"Distance": 19.8
	},
	{
		"type_enum": 1,
		"Name": "Bandello Lake",
		"type_name": "Lake",
		"type_code": 951,
		"LongDD": -120.99722,
		"LatDD": 51.34889,
		"Country": "CAN",
		"ProvState": "British Columbia",
		"Abbrev": "CA-BC",
		"Closest": "North Bonaparte",
		"Distance": 8
	},
	{
		"type_enum": 1,
		"Name": "Banks Lakes",
		"type_name": "Lakes",
		"type_code": 952,
		"LongDD": -130.14444,
		"LatDD": 53.39389,
		"Country": "CAN",
		"ProvState": "British Columbia",
		"Abbrev": "CA-BC",
		"Closest": "Oona River",
		"Distance": 62.2
	},
	{
		"type_enum": 1,
		"Name": "Bannerman Lake",
		"type_name": "Lake",
		"type_code": 951,
		"LongDD": -120.7,
		"LatDD": 51.62694,
		"Country": "CAN",
		"ProvState": "British Columbia",
		"Abbrev": "CA-BC",
		"Closest": "Deka Lake",
		"Distance": 10.6
	},
	{
		"type_enum": 1,
		"Name": "Bannock Lake",
		"type_name": "Lake",
		"type_code": 951,
		"LongDD": -130.15917,
		"LatDD": 54.31889,
		"Country": "CAN",
		"ProvState": "British Columbia",
		"Abbrev": "CA-BC",
		"Closest": "Prince Rupert",
		"Distance": 10.8
	},
	{
		"type_enum": 1,
		"Name": "Banshee Lake",
		"type_name": "Lake",
		"type_code": 951,
		"LongDD": -119.68417,
		"LatDD": 50.88139,
		"Country": "CAN",
		"ProvState": "British Columbia",
		"Abbrev": "CA-BC",
		"Closest": "Chase",
		"Distance": 6.9
	},
	{
		"type_enum": 1,
		"Name": "Baptiste Lake",
		"type_name": "Lake",
		"type_code": 951,
		"LongDD": -116.0925,
		"LatDD": 50.68889,
		"Country": "CAN",
		"ProvState": "British Columbia",
		"Abbrev": "CA-BC",
		"Closest": "Radium Hot Springs",
		"Distance": 7.7
	},
	{
		"type_enum": 1,
		"Name": "Barbara Lake",
		"type_name": "Lake",
		"type_code": 951,
		"LongDD": -120.48083,
		"LatDD": 54.12889,
		"Country": "CAN",
		"ProvState": "British Columbia",
		"Abbrev": "CA-BC",
		"Closest": "Loos",
		"Distance": 60.3
	},
	{
		"type_enum": 1,
		"Name": "Barbe Lakes",
		"type_name": "Lakes",
		"type_code": 952,
		"LongDD": -118.75806,
		"LatDD": 50.21,
		"Country": "CAN",
		"ProvState": "British Columbia",
		"Abbrev": "CA-BC",
		"Closest": "Blue Springs",
		"Distance": 7.9
	},
	{
		"type_enum": 1,
		"Name": "Barber Lake",
		"type_name": "Lake",
		"type_code": 951,
		"LongDD": -120.64083,
		"LatDD": 54.61278,
		"Country": "CAN",
		"ProvState": "British Columbia",
		"Abbrev": "CA-BC",
		"Closest": "Tumbler Ridge",
		"Distance": 61.5
	},
	{
		"type_enum": 1,
		"Name": "Barbour Lake",
		"type_name": "Lake",
		"type_code": 951,
		"LongDD": -116.13528,
		"LatDD": 50.50278,
		"Country": "CAN",
		"ProvState": "British Columbia",
		"Abbrev": "CA-BC",
		"Closest": "Invermere",
		"Distance": 7.4
	},
	{
		"type_enum": 1,
		"Name": "Bardolph Lake",
		"type_name": "Lake",
		"type_code": 951,
		"LongDD": -119.05722,
		"LatDD": 50.26861,
		"Country": "CAN",
		"ProvState": "British Columbia",
		"Abbrev": "CA-BC",
		"Closest": "Lumby",
		"Distance": 7.1
	},
	{
		"type_enum": 1,
		"Name": "Bardon Lake",
		"type_name": "Lake",
		"type_code": 951,
		"LongDD": -129.1,
		"LatDD": 53.63556,
		"Country": "CAN",
		"ProvState": "British Columbia",
		"Abbrev": "CA-BC",
		"Closest": "Weewanie",
		"Distance": 21.3
	},
	{
		"type_enum": 1,
		"Name": "Bare Lake",
		"type_name": "Lake",
		"type_code": 951,
		"LongDD": -120.54667,
		"LatDD": 51.18778,
		"Country": "CAN",
		"ProvState": "British Columbia",
		"Abbrev": "CA-BC",
		"Closest": "Criss Creek",
		"Distance": 20.1
	},
	{
		"type_enum": 1,
		"Name": "Barge Lake",
		"type_name": "Lake",
		"type_code": 951,
		"LongDD": -119.16278,
		"LatDD": 49.71806,
		"Country": "CAN",
		"ProvState": "British Columbia",
		"Abbrev": "CA-BC",
		"Closest": "McCulloch",
		"Distance": 9.2
	},
	{
		"type_enum": 1,
		"Name": "Barkley Lake",
		"type_name": "Lake",
		"type_code": 951,
		"LongDD": -122.46556,
		"LatDD": 52.00111,
		"Country": "CAN",
		"ProvState": "British Columbia",
		"Abbrev": "CA-BC",
		"Closest": "Becher House",
		"Distance": 6.7
	},
	{
		"type_enum": 1,
		"Name": "Barkshack Lake",
		"type_name": "Lake",
		"type_code": 951,
		"LongDD": -124.15556,
		"LatDD": 50.23083,
		"Country": "CAN",
		"ProvState": "British Columbia",
		"Abbrev": "CA-BC",
		"Closest": "Homfray Creek",
		"Distance": 34.8
	},
	{
		"type_enum": 1,
		"Name": "Barlow Lake",
		"type_name": "Lake",
		"type_code": 951,
		"LongDD": -124.45056,
		"LatDD": 54.18694,
		"Country": "CAN",
		"ProvState": "British Columbia",
		"Abbrev": "CA-BC",
		"Closest": "Dog Creek",
		"Distance": 16.1
	},
	{
		"type_enum": 1,
		"Name": "Barnes Lake",
		"type_name": "Lake",
		"type_code": 951,
		"LongDD": -122.80167,
		"LatDD": 49.53167,
		"Country": "CAN",
		"ProvState": "British Columbia",
		"Abbrev": "CA-BC",
		"Closest": "Alvin",
		"Distance": 14.3
	},
	{
		"type_enum": 1,
		"Name": "Barnes Lake",
		"type_name": "Lake",
		"type_code": 951,
		"LongDD": -114.70417,
		"LatDD": 49.44556,
		"Country": "CAN",
		"ProvState": "British Columbia",
		"Abbrev": "CA-BC",
		"Closest": "Corbin",
		"Distance": 8.8
	},
	{
		"type_enum": 1,
		"Name": "Barnes Lake",
		"type_name": "Lake",
		"type_code": 951,
		"LongDD": -122.46306,
		"LatDD": 52.00778,
		"Country": "CAN",
		"ProvState": "British Columbia",
		"Abbrev": "CA-BC",
		"Closest": "Becher House",
		"Distance": 7.4
	},
	{
		"type_enum": 1,
		"Name": "Barnes Lake",
		"type_name": "Lake",
		"type_code": 951,
		"LongDD": -121.24306,
		"LatDD": 50.70111,
		"Country": "CAN",
		"ProvState": "British Columbia",
		"Abbrev": "CA-BC",
		"Closest": "Ashcroft",
		"Distance": 3.6
	},
	{
		"type_enum": 1,
		"Name": "Barnet Lake",
		"type_name": "Lake",
		"type_code": 951,
		"LongDD": -121.81778,
		"LatDD": 49.47056,
		"Country": "CAN",
		"ProvState": "British Columbia",
		"Abbrev": "CA-BC",
		"Closest": "Bear Creek",
		"Distance": 8.5
	},
	{
		"type_enum": 1,
		"Name": "Barney Lake",
		"type_name": "Lake",
		"type_code": 951,
		"LongDD": -122.50194,
		"LatDD": 54.29806,
		"Country": "CAN",
		"ProvState": "British Columbia",
		"Abbrev": "CA-BC",
		"Closest": "Giscome",
		"Distance": 27.2
	},
	{
		"type_enum": 1,
		"Name": "Barney Lake",
		"type_name": "Lake",
		"type_code": 951,
		"LongDD": -127.43194,
		"LatDD": 59.9925,
		"Country": "CAN",
		"ProvState": "British Columbia",
		"Abbrev": "CA-BC",
		"Closest": "Fireside",
		"Distance": 38.9
	},
	{
		"type_enum": 1,
		"Name": "Baron Lake",
		"type_name": "Lake",
		"type_code": 951,
		"LongDD": -128.5525,
		"LatDD": 52.62528,
		"Country": "CAN",
		"ProvState": "British Columbia",
		"Abbrev": "CA-BC",
		"Closest": "Shearwater",
		"Distance": 61.6
	},
	{
		"type_enum": 1,
		"Name": "Barren Lake",
		"type_name": "Lake",
		"type_code": 951,
		"LongDD": -124.02083,
		"LatDD": 49.96306,
		"Country": "CAN",
		"ProvState": "British Columbia",
		"Abbrev": "CA-BC",
		"Closest": "Earls Cove",
		"Distance": 23.5
	},
	{
		"type_enum": 1,
		"Name": "Barrett Lake",
		"type_name": "Lake",
		"type_code": 951,
		"LongDD": -117.35111,
		"LatDD": 49.34222,
		"Country": "CAN",
		"ProvState": "British Columbia",
		"Abbrev": "CA-BC",
		"Closest": "Porto Rico",
		"Distance": 8
	},
	{
		"type_enum": 1,
		"Name": "Barrett Lake",
		"type_name": "Lake",
		"type_code": 951,
		"LongDD": -126.775,
		"LatDD": 54.45167,
		"Country": "CAN",
		"ProvState": "British Columbia",
		"Abbrev": "CA-BC",
		"Closest": "Houston",
		"Distance": 10.1
	},
	{
		"type_enum": 1,
		"Name": "Barrier Lake",
		"type_name": "Lake",
		"type_code": 951,
		"LongDD": -123.08111,
		"LatDD": 49.94806,
		"Country": "CAN",
		"ProvState": "British Columbia",
		"Abbrev": "CA-BC",
		"Closest": "Garibaldi",
		"Distance": 5.3
	},
	{
		"type_enum": 1,
		"Name": "Barriere River",
		"type_name": "River",
		"type_code": 600,
		"LongDD": -120.13861,
		"LatDD": 51.17389,
		"Country": "CAN",
		"ProvState": "British Columbia",
		"Abbrev": "CA-BC",
		"Closest": "Barriere",
		"Distance": 1.2
	},
	{
		"type_enum": 1,
		"Name": "Barrington River",
		"type_name": "River",
		"type_code": 600,
		"LongDD": -131.73778,
		"LatDD": 57.69528,
		"Country": "CAN",
		"ProvState": "British Columbia",
		"Abbrev": "CA-BC",
		"Closest": "Jacksons",
		"Distance": 9.3
	},
	{
		"type_enum": 1,
		"Name": "Barsby Lake",
		"type_name": "Lake",
		"type_code": 951,
		"LongDD": -124.06722,
		"LatDD": 49.09333,
		"Country": "CAN",
		"ProvState": "British Columbia",
		"Abbrev": "CA-BC",
		"Closest": "Nanaimo",
		"Distance": 12.2
	},
	{
		"type_enum": 1,
		"Name": "Bartholomew Lake",
		"type_name": "Lake",
		"type_code": 951,
		"LongDD": -115.78222,
		"LatDD": 49.68722,
		"Country": "CAN",
		"ProvState": "British Columbia",
		"Abbrev": "CA-BC",
		"Closest": "Fort Steele",
		"Distance": 13.3
	},
	{
		"type_enum": 1,
		"Name": "Barton Lake",
		"type_name": "Lake",
		"type_code": 951,
		"LongDD": -123.41139,
		"LatDD": 53.47861,
		"Country": "CAN",
		"ProvState": "British Columbia",
		"Abbrev": "CA-BC",
		"Closest": "Punchaw",
		"Distance": 15.9
	},
	{
		"type_enum": 1,
		"Name": "Barton Lake",
		"type_name": "Lake",
		"type_code": 951,
		"LongDD": -119.885,
		"LatDD": 50.06361,
		"Country": "CAN",
		"ProvState": "British Columbia",
		"Abbrev": "CA-BC",
		"Closest": "Nahun",
		"Distance": 27.6
	},
	{
		"type_enum": 1,
		"Name": "Barton Lake",
		"type_name": "Lake",
		"type_code": 951,
		"LongDD": -121.61583,
		"LatDD": 51.10611,
		"Country": "CAN",
		"ProvState": "British Columbia",
		"Abbrev": "CA-BC",
		"Closest": "Clinton",
		"Distance": 2.6
	},
	{
		"type_enum": 1,
		"Name": "Basalt Lake",
		"type_name": "Lake",
		"type_code": 951,
		"LongDD": -125.49722,
		"LatDD": 52.96722,
		"Country": "CAN",
		"ProvState": "British Columbia",
		"Abbrev": "CA-BC",
		"Closest": "Ulkatcho",
		"Distance": 14.1
	},
	{
		"type_enum": 1,
		"Name": "Basely Lake",
		"type_name": "Lake",
		"type_code": 951,
		"LongDD": -120.39972,
		"LatDD": 49.43111,
		"Country": "CAN",
		"ProvState": "British Columbia",
		"Abbrev": "CA-BC",
		"Closest": "Princeton",
		"Distance": 8.5
	},
	{
		"type_enum": 1,
		"Name": "Batchellor Lake",
		"type_name": "Lake",
		"type_code": 951,
		"LongDD": -129.66194,
		"LatDD": 53.60389,
		"Country": "CAN",
		"ProvState": "British Columbia",
		"Abbrev": "CA-BC",
		"Closest": "Oona River",
		"Distance": 54.5
	},
	{
		"type_enum": 1,
		"Name": "Batchelor Lake",
		"type_name": "Lake",
		"type_code": 951,
		"LongDD": -120.4075,
		"LatDD": 50.73417,
		"Country": "CAN",
		"ProvState": "British Columbia",
		"Abbrev": "CA-BC",
		"Closest": "Kamloops",
		"Distance": 8.1
	},
	{
		"type_enum": 1,
		"Name": "Batchelor Lake",
		"type_name": "Lake",
		"type_code": 951,
		"LongDD": -123.65583,
		"LatDD": 49.59083,
		"Country": "CAN",
		"ProvState": "British Columbia",
		"Abbrev": "CA-BC",
		"Closest": "Tuwanek",
		"Distance": 8.2
	},
	{
		"type_enum": 1,
		"Name": "Batie Lake",
		"type_name": "Lake",
		"type_code": 951,
		"LongDD": -120.97583,
		"LatDD": 49.32611,
		"Country": "CAN",
		"ProvState": "British Columbia",
		"Abbrev": "CA-BC",
		"Closest": "Othello",
		"Distance": 27.8
	},
	{
		"type_enum": 1,
		"Name": "Batnuni Lake",
		"type_name": "Lake",
		"type_code": 951,
		"LongDD": -124.0125,
		"LatDD": 53.36806,
		"Country": "CAN",
		"ProvState": "British Columbia",
		"Abbrev": "CA-BC",
		"Closest": "Punchaw",
		"Distance": 55.4
	},
	{
		"type_enum": 1,
		"Name": "Batstone Lake",
		"type_name": "Lake",
		"type_code": 951,
		"LongDD": -120.63444,
		"LatDD": 49.7775,
		"Country": "CAN",
		"ProvState": "British Columbia",
		"Abbrev": "CA-BC",
		"Closest": "Allison Lake",
		"Distance": 10.1
	},
	{
		"type_enum": 1,
		"Name": "Battaglia Lake",
		"type_name": "Lake",
		"type_code": 951,
		"LongDD": -129.4675,
		"LatDD": 53.52528,
		"Country": "CAN",
		"ProvState": "British Columbia",
		"Abbrev": "CA-BC",
		"Closest": "Weewanie",
		"Distance": 48.4
	},
	{
		"type_enum": 1,
		"Name": "Batten Lake",
		"type_name": "Lake",
		"type_code": 951,
		"LongDD": -121.64944,
		"LatDD": 52.30333,
		"Country": "CAN",
		"ProvState": "British Columbia",
		"Abbrev": "CA-BC",
		"Closest": "Miocene",
		"Distance": 10.7
	},
	{
		"type_enum": 1,
		"Name": "Battle Lake",
		"type_name": "Lake",
		"type_code": 951,
		"LongDD": -138.15833,
		"LatDD": 59.65472,
		"Country": "CAN",
		"ProvState": "British Columbia",
		"Abbrev": "CA-BC",
		"Closest": "Yakutat",
		"Distance": 81.7
	},
	{
		"type_enum": 1,
		"Name": "Battle Lake",
		"type_name": "Lake",
		"type_code": 951,
		"LongDD": -126.35778,
		"LatDD": 50.71556,
		"Country": "CAN",
		"ProvState": "British Columbia",
		"Abbrev": "CA-BC",
		"Closest": "Scott Cove",
		"Distance": 9.1
	},
	{
		"type_enum": 1,
		"Name": "Battleship Lake",
		"type_name": "Lake",
		"type_code": 951,
		"LongDD": -125.30944,
		"LatDD": 49.71861,
		"Country": "CAN",
		"ProvState": "British Columbia",
		"Abbrev": "CA-BC",
		"Closest": "Headquarters",
		"Distance": 14.8
	},
	{
		"type_enum": 1,
		"Name": "Battleship Lakes",
		"type_name": "Lakes",
		"type_code": 952,
		"LongDD": -122.37806,
		"LatDD": 50.19889,
		"Country": "CAN",
		"ProvState": "British Columbia",
		"Abbrev": "CA-BC",
		"Closest": "Owl Creek",
		"Distance": 30.2
	},
	{
		"type_enum": 1,
		"Name": "Baurle Lake",
		"type_name": "Lake",
		"type_code": 951,
		"LongDD": -122.91278,
		"LatDD": 54.16389,
		"Country": "CAN",
		"ProvState": "British Columbia",
		"Abbrev": "CA-BC",
		"Closest": "Prince George",
		"Distance": 30
	},
	{
		"type_enum": 1,
		"Name": "Bayliff Lake",
		"type_name": "Lake",
		"type_code": 951,
		"LongDD": -123.40056,
		"LatDD": 52.31222,
		"Country": "CAN",
		"ProvState": "British Columbia",
		"Abbrev": "CA-BC",
		"Closest": "Redstone",
		"Distance": 28.5
	},
	{
		"type_enum": 1,
		"Name": "Baynes Lake",
		"type_name": "Lake",
		"type_code": 951,
		"LongDD": -115.22417,
		"LatDD": 49.23389,
		"Country": "CAN",
		"ProvState": "British Columbia",
		"Abbrev": "CA-BC",
		"Closest": "Kragmont",
		"Distance": 6.6
	},
	{
		"type_enum": 1,
		"Name": "Beadnell Lake",
		"type_name": "Lake",
		"type_code": 951,
		"LongDD": -125.53139,
		"LatDD": 49.79361,
		"Country": "CAN",
		"ProvState": "British Columbia",
		"Abbrev": "CA-BC",
		"Closest": "Headquarters",
		"Distance": 29.9
	},
	{
		"type_enum": 1,
		"Name": "Beale Lake",
		"type_name": "Lake",
		"type_code": 951,
		"LongDD": -129.10306,
		"LatDD": 58.89389,
		"Country": "CAN",
		"ProvState": "British Columbia",
		"Abbrev": "CA-BC",
		"Closest": "McDame",
		"Distance": 33
	},
	{
		"type_enum": 1,
		"Name": "Bear Creek Reservoir",
		"type_name": "Reservoir",
		"type_code": 955,
		"LongDD": -123.89528,
		"LatDD": 48.50417,
		"Country": "CAN",
		"ProvState": "British Columbia",
		"Abbrev": "CA-BC",
		"Closest": "Shirley",
		"Distance": 13.4
	},
	{
		"type_enum": 1,
		"Name": "Bear Lake",
		"type_name": "Lake",
		"type_code": 951,
		"LongDD": -124.12889,
		"LatDD": 48.815,
		"Country": "CAN",
		"ProvState": "British Columbia",
		"Abbrev": "CA-BC",
		"Closest": "Lake Cowichan",
		"Distance": 5.4
	},
	{
		"type_enum": 1,
		"Name": "Bear Lake",
		"type_name": "Lake",
		"type_code": 951,
		"LongDD": -122.67667,
		"LatDD": 54.47694,
		"Country": "CAN",
		"ProvState": "British Columbia",
		"Abbrev": "CA-BC",
		"Closest": "Anzac",
		"Distance": 33.7
	},
	{
		"type_enum": 1,
		"Name": "Bear Lake",
		"type_name": "Lake",
		"type_code": 951,
		"LongDD": -117.19556,
		"LatDD": 50.04139,
		"Country": "CAN",
		"ProvState": "British Columbia",
		"Abbrev": "CA-BC",
		"Closest": "Zincton",
		"Distance": 0.9
	},
	{
		"type_enum": 1,
		"Name": "Bear Lake",
		"type_name": "Lake",
		"type_code": 951,
		"LongDD": -126.82,
		"LatDD": 56.09528,
		"Country": "CAN",
		"ProvState": "British Columbia",
		"Abbrev": "CA-BC",
		"Closest": "Bulkley House",
		"Distance": 57.2
	},
	{
		"type_enum": 1,
		"Name": "Bear Lake",
		"type_name": "Lake",
		"type_code": 951,
		"LongDD": -121.73417,
		"LatDD": 49.31806,
		"Country": "CAN",
		"ProvState": "British Columbia",
		"Abbrev": "CA-BC",
		"Closest": "Harrison Hot Springs",
		"Distance": 4.2
	},
	{
		"type_enum": 1,
		"Name": "Bear Lake",
		"type_name": "Lake",
		"type_code": 951,
		"LongDD": -119.17639,
		"LatDD": 50.1525,
		"Country": "CAN",
		"ProvState": "British Columbia",
		"Abbrev": "CA-BC",
		"Closest": "Coldstream",
		"Distance": 8.8
	},
	{
		"type_enum": 1,
		"Name": "Bear Lake",
		"type_name": "Lake",
		"type_code": 951,
		"LongDD": -128.92028,
		"LatDD": 53.0875,
		"Country": "CAN",
		"ProvState": "British Columbia",
		"Abbrev": "CA-BC",
		"Closest": "Weewanie",
		"Distance": 67.7
	},
	{
		"type_enum": 1,
		"Name": "Bear Lake",
		"type_name": "Lake",
		"type_code": 951,
		"LongDD": -125.65583,
		"LatDD": 50.17083,
		"Country": "CAN",
		"ProvState": "British Columbia",
		"Abbrev": "CA-BC",
		"Closest": "Elk Bay",
		"Distance": 19.5
	},
	{
		"type_enum": 1,
		"Name": "Bear Lake",
		"type_name": "Lake",
		"type_code": 951,
		"LongDD": -123.58,
		"LatDD": 49.81111,
		"Country": "CAN",
		"ProvState": "British Columbia",
		"Abbrev": "CA-BC",
		"Closest": "Doriston",
		"Distance": 24.2
	},
	{
		"type_enum": 1,
		"Name": "Bear Paw Lake",
		"type_name": "Lake",
		"type_code": 951,
		"LongDD": -118.25833,
		"LatDD": 49.59361,
		"Country": "CAN",
		"ProvState": "British Columbia",
		"Abbrev": "CA-BC",
		"Closest": "Renata",
		"Distance": 21.2
	},
	{
		"type_enum": 1,
		"Name": "Bear River",
		"type_name": "River",
		"type_code": 600,
		"LongDD": -124.95444,
		"LatDD": 50.83389,
		"Country": "CAN",
		"ProvState": "British Columbia",
		"Abbrev": "CA-BC",
		"Closest": "Brem River",
		"Distance": 48.9
	},
	{
		"type_enum": 1,
		"Name": "Bear River",
		"type_name": "River",
		"type_code": 600,
		"LongDD": -126.97056,
		"LatDD": 56.27972,
		"Country": "CAN",
		"ProvState": "British Columbia",
		"Abbrev": "CA-BC",
		"Closest": "Fourth Cabin",
		"Distance": 59.6
	},
	{
		"type_enum": 1,
		"Name": "Bear River",
		"type_name": "River",
		"type_code": 600,
		"LongDD": -129.98917,
		"LatDD": 55.9175,
		"Country": "CAN",
		"ProvState": "British Columbia",
		"Abbrev": "CA-BC",
		"Closest": "Stewart",
		"Distance": 2.3
	},
	{
		"type_enum": 1,
		"Name": "Beard Lake",
		"type_name": "Lake",
		"type_code": 951,
		"LongDD": -127.45972,
		"LatDD": 50.71444,
		"Country": "CAN",
		"ProvState": "British Columbia",
		"Abbrev": "CA-BC",
		"Closest": "Port Hardy",
		"Distance": 2.9
	},
	{
		"type_enum": 1,
		"Name": "Bearhole Lake",
		"type_name": "Lake",
		"type_code": 951,
		"LongDD": -120.68889,
		"LatDD": 55.05111,
		"Country": "CAN",
		"ProvState": "British Columbia",
		"Abbrev": "CA-BC",
		"Closest": "Tumbler Ridge",
		"Distance": 21.4
	},
	{
		"type_enum": 1,
		"Name": "Bearpaw Lake",
		"type_name": "Lake",
		"type_code": 951,
		"LongDD": -118.12389,
		"LatDD": 50.53,
		"Country": "CAN",
		"ProvState": "British Columbia",
		"Abbrev": "CA-BC",
		"Closest": "Fosthall",
		"Distance": 24.1
	},
	{
		"type_enum": 1,
		"Name": "Bearpaw Lake",
		"type_name": "Lake",
		"type_code": 951,
		"LongDD": -121.49111,
		"LatDD": 51.87472,
		"Country": "CAN",
		"ProvState": "British Columbia",
		"Abbrev": "CA-BC",
		"Closest": "122 Mile House",
		"Distance": 8
	},
	{
		"type_enum": 1,
		"Name": "Bearskin Lake",
		"type_name": "Lake",
		"type_code": 951,
		"LongDD": -132.29194,
		"LatDD": 58.19667,
		"Country": "CAN",
		"ProvState": "British Columbia",
		"Abbrev": "CA-BC",
		"Closest": "Sheslay",
		"Distance": 30
	},
	{
		"type_enum": 1,
		"Name": "Beartrack Lake",
		"type_name": "Lake",
		"type_code": 951,
		"LongDD": -120.75111,
		"LatDD": 51.955,
		"Country": "CAN",
		"ProvState": "British Columbia",
		"Abbrev": "CA-BC",
		"Closest": "Mahood Falls",
		"Distance": 15.2
	},
	{
		"type_enum": 1,
		"Name": "Beartrap Lake",
		"type_name": "Lake",
		"type_code": 951,
		"LongDD": -120.57,
		"LatDD": 51.54306,
		"Country": "CAN",
		"ProvState": "British Columbia",
		"Abbrev": "CA-BC",
		"Closest": "Roe Lake",
		"Distance": 18.5
	},
	{
		"type_enum": 1,
		"Name": "Beaton Lake",
		"type_name": "Lake",
		"type_code": 951,
		"LongDD": -120.63611,
		"LatDD": 50.68528,
		"Country": "CAN",
		"ProvState": "British Columbia",
		"Abbrev": "CA-BC",
		"Closest": "Copper Creek",
		"Distance": 14.3
	},
	{
		"type_enum": 1,
		"Name": "Beatrice Lake",
		"type_name": "Lake",
		"type_code": 951,
		"LongDD": -117.60944,
		"LatDD": 49.87833,
		"Country": "CAN",
		"ProvState": "British Columbia",
		"Abbrev": "CA-BC",
		"Closest": "Slocan",
		"Distance": 16
	},
	{
		"type_enum": 1,
		"Name": "Beattie Lake",
		"type_name": "Lake",
		"type_code": 951,
		"LongDD": -123.29972,
		"LatDD": 57.18333,
		"Country": "CAN",
		"ProvState": "British Columbia",
		"Abbrev": "CA-BC",
		"Closest": "Sikanni Chief",
		"Distance": 36.5
	},
	{
		"type_enum": 1,
		"Name": "Beatton River",
		"type_name": "River",
		"type_code": 600,
		"LongDD": -120.37694,
		"LatDD": 56.09944,
		"Country": "CAN",
		"ProvState": "British Columbia",
		"Abbrev": "CA-BC",
		"Closest": "Tower Lake",
		"Distance": 14.9
	},
	{
		"type_enum": 1,
		"Name": "Beatty Lake",
		"type_name": "Lake",
		"type_code": 951,
		"LongDD": -115.30139,
		"LatDD": 50.65472,
		"Country": "CAN",
		"ProvState": "British Columbia",
		"Abbrev": "CA-BC",
		"Closest": "Invermere",
		"Distance": 54.1
	},
	{
		"type_enum": 1,
		"Name": "Beaufort Lake",
		"type_name": "Lake",
		"type_code": 951,
		"LongDD": -125.04111,
		"LatDD": 49.50528,
		"Country": "CAN",
		"ProvState": "British Columbia",
		"Abbrev": "CA-BC",
		"Closest": "Cumberland",
		"Distance": 12.6
	},
	{
		"type_enum": 1,
		"Name": "Beaumont Lake",
		"type_name": "Lake",
		"type_code": 951,
		"LongDD": -122.79194,
		"LatDD": 51.91,
		"Country": "CAN",
		"ProvState": "British Columbia",
		"Abbrev": "CA-BC",
		"Closest": "Hanceville",
		"Distance": 17.2
	},
	{
		"type_enum": 1,
		"Name": "Beauregard Lake",
		"type_name": "Lake",
		"type_code": 951,
		"LongDD": -120.33333,
		"LatDD": 51.20639,
		"Country": "CAN",
		"ProvState": "British Columbia",
		"Abbrev": "CA-BC",
		"Closest": "Chinook Cove",
		"Distance": 12
	},
	{
		"type_enum": 1,
		"Name": "Beautiful Lake",
		"type_name": "Lake",
		"type_code": 951,
		"LongDD": -122.5125,
		"LatDD": 49.30972,
		"Country": "CAN",
		"ProvState": "British Columbia",
		"Abbrev": "CA-BC",
		"Closest": "Yennadon",
		"Distance": 9.9
	},
	{
		"type_enum": 1,
		"Name": "Beautiful Lake",
		"type_name": "Lake",
		"type_code": 951,
		"LongDD": -119.95361,
		"LatDD": 50.25694,
		"Country": "CAN",
		"ProvState": "British Columbia",
		"Abbrev": "CA-BC",
		"Closest": "Fintry",
		"Distance": 34.9
	},
	{
		"type_enum": 1,
		"Name": "Beautiful Lake",
		"type_name": "Lake",
		"type_code": 951,
		"LongDD": -125.33639,
		"LatDD": 49.6875,
		"Country": "CAN",
		"ProvState": "British Columbia",
		"Abbrev": "CA-BC",
		"Closest": "Headquarters",
		"Distance": 18.1
	},
	{
		"type_enum": 1,
		"Name": "Beauty Lake",
		"type_name": "Lake",
		"type_code": 951,
		"LongDD": -125.5275,
		"LatDD": 49.43694,
		"Country": "CAN",
		"ProvState": "British Columbia",
		"Abbrev": "CA-BC",
		"Closest": "Chetarpe",
		"Distance": 40
	},
	{
		"type_enum": 1,
		"Name": "Beaux Yeux Lake",
		"type_name": "Lake",
		"type_code": 951,
		"LongDD": -121.71389,
		"LatDD": 52.25194,
		"Country": "CAN",
		"ProvState": "British Columbia",
		"Abbrev": "CA-BC",
		"Closest": "Miocene",
		"Distance": 4.1
	},
	{
		"type_enum": 1,
		"Name": "Beaver Dam Lake",
		"type_name": "Lake",
		"type_code": 951,
		"LongDD": -124.19556,
		"LatDD": 54.495,
		"Country": "CAN",
		"ProvState": "British Columbia",
		"Abbrev": "CA-BC",
		"Closest": "Fort St James",
		"Distance": 7
	},
	{
		"type_enum": 1,
		"Name": "Beaver Lake",
		"type_name": "Lake",
		"type_code": 951,
		"LongDD": -123.13917,
		"LatDD": 49.30417,
		"Country": "CAN",
		"ProvState": "British Columbia",
		"Abbrev": "CA-BC",
		"Closest": "West Vancouver",
		"Distance": 3.3
	},
	{
		"type_enum": 1,
		"Name": "Beaver Lake",
		"type_name": "Lake",
		"type_code": 951,
		"LongDD": -124.07917,
		"LatDD": 48.81333,
		"Country": "CAN",
		"ProvState": "British Columbia",
		"Abbrev": "CA-BC",
		"Closest": "Lake Cowichan",
		"Distance": 2.2
	},